Id,routeId,nameZh,nameEn,seqNo,pgp,goBack,longitude,latitude,address,coordinate
191393,17789,新莊體育館,Xinzhuang Stadium,21,-1,1,121.452097,25.039359,新莊體育館(向南),"121.452097, 25.039359"
33945,10148,捷運府中站(府中路),MRT Fuzhong Station(Fuzhong Rd.),46,-1,0,121.458454,25.009036,府中路49號(向東),"121.458454, 25.009036"
33947,10148,萬坪公園,Wanping Park,47,,0,121.460871,25.013298,文化路一段51號對向(向北),"121.460871, 25.013298"
33948,10148,新北板橋公車站,NTPC Banqiao Bus Station,48,-1,1,121.46261,25.012769,縣民大道公車專用月台第三月台(向東),"121.46261, 25.012769"
181065,16518,新莊高中,Xinzhuang High School,8,,0,121.4447176,25.04788846,中平路135號(向南),"121.4447176, 25.04788846"
181066,16518,新莊高中,Xinzhuang High School,98,,1,121.4449156,25.04801,中平路188號(向北),"121.4449156, 25.04801"
202833,17845,新山淨水廠, Xinshan Water Purification Plant,34,0,0,121.72039,25.133175,基隆市安樂區麥金路741號(向南),"121.72039, 25.133175"
202834,17845,新山淨水廠, ,50,0,1,121.720332,25.132922,基隆市安樂區麥金路735號對面(向北),"121.720332, 25.132922"
193137,17845,藍天麗地社區,Lantian Lidi Community,59,,1,121.697096,25.154043,基金三路60號,"121.697096, 25.154043"
33982,10148,中山實小,Zhongshan Experimental Elementary School,55,-1,1,121.4462031,25.00205217,大觀路二段63號(向南),"121.4462031, 25.00205217"
33985,10148,沙崙里,Shalun Village,58,-1,1,121.4319,24.994928,板橋區篤行路一段18號旁(向南),"121.4319, 24.994928"
33986,10148,沙崙國小(大觀路),Shalun Elementary School,59,-1,1,121.430703,24.992579,沙崙國小(向南),"121.430703, 24.992579"
33987,10148,濟安宮(保安街),Jian Temple,60,-1,1,121.427081,24.993585,保安街一段(向西),"121.427081, 24.993585"
33989,10148,樹林後火車站,Shulin Train Station Rear,62,-1,1,121.423475,24.991726,中山路一段72號(向南),"121.423475, 24.991726"
33990,10148,育英街口,Yuying St. Intersection,63,-1,1,121.422148,24.989548,中山路一段143號(向南),"121.422148, 24.989548"
33991,10148,樹林仁愛醫院,Shulin Renai Hospital,64,-1,1,121.421124,24.98787288,中山路一段238號(向南),"121.421124, 24.98787288"
33992,10148,海明寺,Haiming Temple,65,-1,1,121.418267,24.98555342,中山路ㄧ段398號同向(向西),"121.418267, 24.98555342"
124953,16123,德光路口,DeGuang Rd. Entrance,8,,0,121.471153,25.004529,中和區德光路16號(向西南),"121.471153, 25.004529"
124954,16123,德光路口,DeGuang Rd. Entrance,57,,1,121.471385,25.004455,中和區德光路9號(向東北),"121.471385, 25.004455"
34369,10161,積穗(員山路),Jisui(Yuanshan Rd.),19,-1,0,121.479854,25.006676,員山路472號(向北),"121.479854, 25.006676"
34370,10161,松下電子,Matsushita Electronics Company,20,-1,0,121.47932,25.008669,員山路508號(向北),"121.47932, 25.008669"
34371,10161,自來水公司,Taiwan Water Company,21,,0,121.479068,25.0127,三民路二段239號前(向北),"121.479068, 25.0127"
34372,10161,長壽里,President Textile,22,,0,121.479287,25.015381,三民路二段133號(向北),"121.479287, 25.015381"
34511,10172,捷運西門站,MRT Ximen Station,24,0,0,121.5081874,25.04099809,中華路一段台北憲兵隊前(捷運西門站2號出口)(向北),"121.5081874, 25.04099809"
34512,10172,中華路北站,Zhonghua Rd. North Station,25,0,0,121.5093021,25.04495097,中華路一段(向北),"121.5093021, 25.04495097"
34514,10172,重慶南路一段,Chongqing S. Road Sec. 1,26,0,1,121.5131649,25.04469193,重慶南路一段30號同向(向南),"121.5131649, 25.04469193"
34515,10172,博物館(襄陽),Taiwan Museum(Xiangyang),27,0,1,121.5146668,25.04337336,襄陽路2號同向(向東),"121.5146668, 25.04337336"
34516,10172,捷運台大醫院站,MRT NTU Hospital Station,28,0,1,121.5161482,25.04193576,公園路與常德街交岔口西北側(向南),"121.5161482, 25.04193576"
34517,10172,一女中(公園),Taipei First Girls High School(Gongyuan),29,0,1,121.5149627,25.03800782,公園路21號對面(向南),"121.5149627, 25.03800782"
34518,10172,市立大學附小,Affliated Experimental Elementary School of University Taipei,30,0,1,121.5149763,25.0364626,公園路29號同向(向南),"121.5149763, 25.0364626"
34519,10172,南門,Nanmen,31,0,1,121.51548,25.03348,南昌路一段10巷北側公賣局前(向南),"121.51548, 25.03348"
34520,10172,南昌路(暫時裁撤),Nanchang Rd.,32,0,1,121.517135,25.031262,南昌路一段58至72號,"121.517135, 25.031262"
33993,10148,東昇公園,Dongsheng Park,66,-1,1,121.415139,24.983992,樹林區中山路二段80號(向南),"121.415139, 24.983992"
33994,10148,東昇福德宮,Dongsheng Fude Temple,67,-1,1,121.4119361,24.98311074,中山路二段158號同向(向南),"121.4119361, 24.98311074"
33995,10148,南樹林火車站,South Shulin Station,68,,1,121.40858,24.98013,中山路二段118之154號同向(向南),"121.40858, 24.98013"
33996,10148,東山,Dongshan,69,-1,1,121.406613,24.9792,中山路二段135號對向(向南),"121.406613, 24.9792"
33997,10148,山佳國小,Sanjia Elementary School,70,-1,1,121.402015,24.975931,中山路二段249巷2-1號對向(向南),"121.402015, 24.975931"
33999,10148,中洲街口,Zhongzhou St. Entrance,72,-1,1,121.396631,24.973384,樹林區中山路三段127-1號對向(向南),"121.396631, 24.973384"
34000,10148,山佳,Sanjia,73,-1,1,121.393275,24.972329,新北市樹林區中山路三段92號(向西),"121.393275, 24.972329"
34001,10148,淨律寺,Jinglu Temple,74,-1,1,121.38879,24.970092,中山路三段淨律寺大門西側(向南),"121.38879, 24.970092"
34002,10148,樂山,Leshan,76,-1,1,121.38554,24.9684,中山路三段160之162號同向(向南),"121.38554, 24.9684"
34003,10148,風路坑,Fenglukeng,77,-1,1,121.38284,24.96635,中山路三段206號(向南),"121.38284, 24.96635"
34004,10148,阿南坑,Anankeng,78,-1,1,121.377036,24.962604,中正一路路燈編號213126(向南),"121.377036, 24.962604"
34005,10148,茶山,Chashan,79,,1,121.3716741,24.95894885,中正一路265號(向西),"121.3716741, 24.95894885"
34459,10171,西藏路口,Xizang Rd. Intersection,30,,1,121.500457,25.02899,萬大路140~152號,"121.500457, 25.02899"
34460,10171,德昌街口,Dechang St. Intersection,31,,1,121.500346,25.024981,萬大路298~310號,"121.500346, 25.024981"
34461,10171,萬大國小,Wanda Elementary School,32,,1,121.500101,25.024038,萬大路334號同向(向南),"121.500101, 25.024038"
34521,10172,聯合醫院婦幼院區一,TCUH Branch of Women and Children 1,34,0,1,121.5180375,25.02998786,南昌路一段114號同向(向南),"121.5180375, 25.02998786"
34522,10172,南福板溪(南昌公園),Nanfu Banxi(Nanchang Rd. furniture market),35,0,1,121.52053,25.02681,臺北市和平西路一段30號對面(向西),"121.52053, 25.02681"
34178,10151,板橋榮家,Banqiao Veterans Home,38,,0,121.44574,25.00115,大觀路二段32號對面(向北),"121.44574, 25.00115"
34440,10171,中正中山路口,Zhongzheng & Zhongshan Intersection,9,-1,0,121.483269,25.004884,中山路二段475號(向東),"121.483269, 25.004884"
34463,10171,華中橋,Huazhong Bridge,34,,1,121.4965023,25.00318965,景平路707號(向南),"121.4965023, 25.00318965"
34464,10171,捷運中和站(中山路),MRT Zhonghe Station(Zhongshan Rd.),35,-1,1,121.496164,25.002415,中山路二段326號同向(向西),"121.496164, 25.002415"
34465,10171,家美工業區,Jiamei industrial Area,36,-1,1,121.493465,25.00229,中山路二段378號同向(向西),"121.493465, 25.00229"
34466,10171,中和保養廠,Zhonghe Maintenance Plant,37,,1,121.491807,25.003079,中山路二段372號同向(向西),"121.491807, 25.003079"
34467,10171,捷運橋和站,MRT Qiaohe Sta.,38,-1,1,121.490533,25.004437,中和區板南路430號(向西),"121.490533, 25.004437"
34468,10171,中山錦和路口,Zhongshan & Jinhe Intersection,39,-1,1,121.4863334,25.00500509,中山路二段510號同向(向西),"121.4863334, 25.00500509"
34470,10171,中正中山路口,Zhongzheng & Zhongshan Intersection,40,-1,1,121.482114,25.005232,中山路二段594號(向西),"121.482114, 25.005232"
34472,10171,員山公園,Yuanshan Park,42,-1,1,121.480636,25.00395,員山路437號(向南),"121.480636, 25.00395"
34474,10171,員山派出所,Yuanshan Police Substation,44,,1,121.481182,24.998038,員山路221號同向(向南),"121.481182, 24.998038"
34475,10171,中和高中(員山路),Zhonghe High School(Yuanshan Rd.),45,-1,1,121.4809504,24.99579873,員山路135號同向(向南),"121.4809504, 24.99579873"
34476,10171,連城路,Liancheng Rd.,46,,1,121.482957,24.995553,連城路485號同向(向北),"121.482957, 24.995553"
34477,10171,連城中正路口,Liancheng Zhongzheng Intersection,47,,1,121.484429,24.996128,連城路457號(向東),"121.484429, 24.996128"
33976,10148,萬坪公園,Wanping Park,49,,1,121.460677,25.01352,文化路一段51號同向(向南),"121.460677, 25.01352"
33921,10148,中洲街口,Zhongzhou St. Entrance,23,-1,0,121.397068,24.973394,樹林區中山路三段125-2號(向北),"121.397068, 24.973394"
34352,10161,少年觀護所,Juvenile Detention and Classification House,1,,0,121.45942,24.970087,青雲路452號斜對面(向北),"121.45942, 24.970087"
34353,10161,清化里,Qinghua Village,2,,0,121.45945,24.97132,青雲路589號(向北),"121.45945, 24.97132"
34354,10161,宏國德霖科技大學,Hungkuo Delin University of Technology,3,-1,0,121.45886,24.972709,青雲路529號(向北),"121.45886, 24.972709"
34492,10172,台貿一村,Taimao Village 1,4,0,0,121.4923204,24.99655684,連城路235號同向(向東),"121.4923204, 24.99655684"
34493,10172,中和國稅局,Zhonghe National Tax Administration,5,0,0,121.4951329,24.99819818,連城路183號同向(向東),"121.4951329, 24.99819818"
34494,10172,連城景平路(暫時裁撤),Liancheng & Jingping Rd.,6,0,0,121.4964382,24.99966641,連城路165號同向(向東),"121.4964382, 24.99966641"
34496,10172,大潤發,RT-MART,8,0,0,121.4995324,25.00307486,福祥路10號(向北),"121.4995324, 25.00307486"
34497,10172,莊敬路,Zhuangjing Rd.,10,0,0,121.5016018,25.00601138,莊敬路(向東),"121.5016018, 25.00601138"
34498,10172,莊仁橋,Zhuangren Bridge,11,0,0,121.5032215,25.00763194,莊敬路31號同向(向東),"121.5032215, 25.00763194"
34499,10172,仁愛公園,Renai Park,12,0,0,121.505873,25.009682,仁愛路273號同向(向北),"121.505873, 25.009682"
34500,10172,永平路,Yongping Rd.,13,0,0,121.5080925,25.01163486,仁愛路276號同向(向西),"121.5080925, 25.01163486"
34502,10172,文化里,Wenhua Village,15,0,0,121.509228,25.015503,保安路(向東),"121.509228, 25.015503"
34503,10172,頂溪國小,Dingxi Elementary School,16,0,0,121.51129,25.015795,新北市永和區文化路133號(向東),"121.51129, 25.015795"
34504,10172,文化路,Wenhua Rd.,17,0,0,121.5144971,25.01501611,文化路39號同向(向東),"121.5144971, 25.01501611"
34505,10172,中正橋頭,Zhongzheng Bridge Stop,18,0,0,121.5162239,25.01604284,永和路二段322號同向(向北),"121.5162239, 25.01604284"
34508,10172,中正二分局,Zhongzheng Police Station 2,21,0,0,121.5140869,25.03264563,重慶南路二段(向北),"121.5140869, 25.03264563"
34509,10172,臺北法院,Taipei District Court,22,0,0,121.511399,25.03585458,愛國西路同向(向西),"121.511399, 25.03585458"
34180,10151,國立臺灣藝術大學,National Taiwan University of Arts,40,-1,0,121.4476,25.0062,大觀路一段59號同向(向北),"121.4476, 25.0062"
181081,17557,及人中學,Chi Jen High School,6,,0,121.518062,24.967108,安和路一段(向北),"121.518062, 24.967108"
181082,17557,十四份,Shisifen,7,,0,121.518795,24.969329,安和路2段1-1號(向北),"121.518795, 24.969329"
181083,17557,輕軌陽光運動公園站,LRT Sunshine Sports Park Sta.,9,,0,121.519852,24.972839,安和路2段142號(向北),"121.519852, 24.972839"
181084,17557,石頭厝,Shitoucuo,10,,0,121.51912,24.974308,安和路2段156號(向北),"121.51912, 24.974308"
181085,17557,安和路二段,Anhe Rd. Sec. 2,11,,0,121.517372,24.976061,新店區安和路二段222號(向北),"121.517372, 24.976061"
181086,17557,陽光運動公園(新店花市),Yangguang Park(Anhe Flower Market),12,-1,0,121.5167886,24.97725375,安和路2段230號(向北),"121.5167886, 24.97725375"
181087,17557,安和里,Anhe Village,13,-1,0,121.517416,24.981146,安和路三段29-4號同向(向北),"121.517416, 24.981146"
33977,10148,北門街,Beimen St.,50,-1,1,121.45679,25.01123,北門街52號同向(向西),"121.45679, 25.01123"
33978,10148,林家花園,Lin Family Garden,51,-1,1,121.454152,25.01109202,西門街57號同向(向西),"121.454152, 25.01109202"
33979,10148,接雲寺,Jieyun Temple,52,-1,1,121.4539276,25.0091664,板橋林園街1號旁(向西),"121.4539276, 25.0091664"
33980,10148,大觀國小,Daguan Elementary School,53,,1,121.449581,25.008563,大觀路一段31號對面(向西),"121.449581, 25.008563"
181088,17557,輕軌新和國小站(水工大樓),LRT Xinhe Elementary School Sta.(Hydraulic building),14,,0,121.517953,24.983806,安和路三段83號對面(向北),"121.517953, 24.983806"
181089,17557,新和國小,Xinhe Elementary School,15,,0,121.517283,24.985335,安和路三段(向西),"121.517283, 24.985335"
196418,10196,三峽國中一,Sanxia Junior High School I,145,0,1,121.369821,24.938765,新北市三峽區復興路177巷對面,"121.369821, 24.938765"
196422,16585,三峽國中一,Sanxia Junior High School I,30,0,1,121.369186,24.938689,三峽區復興路179-5號(向東),"121.369186, 24.938689"
196426,16666,樹林火車站,ShuLin Train Station,26,0,0,121.4250222,24.991036,樹林區鎮前街69號,"121.4250222, 24.991036"
34409,10161,變電所,Transformer Station,61,,1,121.470588,24.989443,金城路三段231號對向(向南),"121.470588, 24.989443"
34411,10161,永豐路口,Yongfeng Rd. Entrance,63,,1,121.4659091,24.98695477,金城路三段39號(向南),"121.4659091, 24.98695477"
34412,10161,清水國小,Qingshui Elementary School,64,,1,121.462148,24.985487,金城路二段356號同向(向西),"121.462148, 24.985487"
34414,10161,清水,Qingshui,65,,1,121.45903,24.98216,青雲路192號同向(向南),"121.45903, 24.98216"
34415,10161,清水派出所,Qingshui Police Station,66,,1,121.458958,24.9797378,青雲路256號同向(向南),"121.458958, 24.9797378"
34416,10161,檳榔科,Binlangke,67,,1,121.45886,24.97754,青雲路329號對向(向南),"121.45886, 24.97754"
33929,10148,樹林仁愛醫院,Shulin Renai Hospital,30,-1,0,121.42122,24.98764,中山路ㄧ段193號同向(向東),"121.42122, 24.98764"
34006,10148,阿四坑,Asikeng,80,,1,121.3700954,24.95833731,中正一路137電桿對面(向西),"121.3700954, 24.95833731"
34007,10148,牛灶坑,Niuzaokeng,81,-1,1,121.36458,24.9566,中正一路建德門社區大門西側(向西),"121.36458, 24.9566"
34008,10148,高明寺,Gaoming Temple,82,,1,121.36216,24.95699,中正一路441號同向(向西),"121.36216, 24.95699"
34010,10148,鶯歌火車站,Yingge Rail Sta.,84,-1,1,121.354993,24.955077,鶯歌區仁愛路火車站前全家門口(向南),"121.354993, 24.955077"
34014,10148,陶瓷博物館,Yingge Ceramics Museum,89,-1,1,121.352637,24.94957114,文化路200號(向南),"121.352637, 24.94957114"
34016,10148,客家文化園區,Hakka Museum,90,-1,1,121.356116,24.940893,新北市鶯歌區三鶯路11號對面,"121.356116, 24.940893"
34018,10148,臺北大學(三峽校區),Nat'l Taipei U. (Sanxia Campus),92,-1,1,121.36797,24.938865,復興路255之1號(向東),"121.36797, 24.938865"
34019,10148,三峽國中,Sanxia Junior High School,94,-1,1,121.370724,24.938309,復興路168號同向(向東),"121.370724, 24.938309"
34020,10148,復興路,Fuxing Rd.,95,-1,1,121.3726289,24.937495,新北市三峽區復興路11號,"121.3726289, 24.937495"
34021,10148,三峽老街(民生街),Sanxia Old St.(Minsheng St.),96,-1,1,121.37406,24.93569,民生街96號(向南),"121.37406, 24.93569"
34023,10148,文化路,Wenhua Rd.,97,,1,121.3709167,24.936243,新北市三峽區文化路122號,"121.3709167, 24.936243"
34417,10161,清和里,Qinghe Li,68,,1,121.45866,24.974487,青雲路459號對面(向南),"121.45866, 24.974487"
34418,10161,宏國德霖科技大學,Hungkuo Delin University of Technology,69,-1,1,121.458723,24.973024,青雲路406號同向(向南),"121.458723, 24.973024"
34419,10161,清化里,Qinghua Village,70,,1,121.459344,24.971437,青雲路589號同向(向南),"121.459344, 24.971437"
34420,10161,少年觀護所,Juvenile Detention and Classification House,71,-1,1,121.459496,24.969587,石門路2巷口(向南),"121.459496, 24.969587"
34433,10171,連城中正路口,Liancheng Zhongzheng Intersection,2,,0,121.484217,24.996296,連城路292號(向西),"121.484217, 24.996296"
34434,10171,連城路,Liancheng Rd.,3,,0,121.482763,24.995775,連城路344-1號(向西),"121.482763, 24.995775"
34437,10171,積穗國中,Jisui Junior High School,6,,0,121.4813353,25.0006,員山路198號(向北),"121.4813353, 25.0006"
34438,10171,員山公園,Yuanshan Park,7,-1,0,121.4810458,25.00346806,員山路370-374號(向北),"121.4810458, 25.00346806"
34439,10171,積穗,Jisui,8,,0,121.48095,25.00543,中山路二段648號對面(向東),"121.48095, 25.00543"
34145,10151,十三公,Shisangong,1,,0,121.430021,24.998244,樹新路233號斜對面(向北),"121.430021, 24.998244"
34146,10151,圳福里,ZunFu Village,2,-1,0,121.431245,25.000554,新北市樹林區樹新路225號對面(向北),"121.431245, 25.000554"
34441,10171,捷運橋和站,MRT Qiaohe Sta.,11,-1,0,121.490119,25.004677,中和區板南路430號對面(向東),"121.490119, 25.004677"
34442,10171,中山錦和路口,Zhongshan & Jinhe Intersection,10,-1,0,121.486227,25.004805,中山路二段403號同向(向東),"121.486227, 25.004805"
34444,10171,中和保養廠,Zhonghe Maintenance Plant,12,,0,121.492374,25.002543,中山路二段347號(向東),"121.492374, 25.002543"
34445,10171,家美工業區,Jiamei industrial Area,13,-1,0,121.493912,25.002028,中山路二段317號(向東),"121.493912, 25.002028"
34446,10171,華中橋,Huazhong Bridge,15,,0,121.496762,25.003062,景平路722號同向(向北),"121.496762, 25.003062"
34448,10171,萬大國小,Wanda Elementary School,17,,0,121.4998941,25.0232907,萬大路333-335號同向(向北),"121.4998941, 25.0232907"
34449,10171,德昌街口,Dechang St. Intersection,18,,0,121.500485,25.025045,萬大路291-297號同向(向北),"121.500485, 25.025045"
181090,17557,三介廟,Sanjie Temple,16,,0,121.513308,24.988375,景新街457號同向(向西),"121.513308, 24.988375"
181091,17557,景新街,Jingxin St.,17,,0,121.512485,24.989999,景新街403號至413號前(向西),"121.512485, 24.989999"
34167,10151,樹林農會,Shulin Farmers Association,27,,0,121.41745,24.98766,復興街290號同向(向南),"121.41745, 24.98766"
34168,10151,海明寺,Haiming Temple,28,,0,121.418065,24.98527587,中山路一段414號對向(向北),"121.418065, 24.98527587"
34170,10151,育英街口,Yuying St. Intersection,30,,0,121.422411,24.989525,中山路一段143號同向(向北),"121.422411, 24.989525"
34171,10151,樹林後火車站,Shulin Train Station Rear,31,-1,0,121.423739,24.991841,後站街8號對向(向北),"121.423739, 24.991841"
34172,10151,中山路口,Zhongshan Rd. Intersection,32,,0,121.424598,24.99329752,中山路一段27-7號(向北),"121.424598, 24.99329752"
34173,10151,濟安宮(保安街),Jian Temple,33,-1,0,121.427446,24.993247,保安街一段(向東),"121.427446, 24.993247"
34176,10151,福安里,Fuan Village,36,,0,121.4410403,24.997312,大觀路二段391號(向北),"121.4410403, 24.997312"
34179,10151,中山實小,Zhongshan Experimental Elementary School,39,,0,121.446636,25.00256772,大觀路二段28號(向北),"121.446636, 25.00256772"
34450,10171,西藏路口,Xizang Rd. Intersection,19,,0,121.500599,25.028737,萬大路143-147號同向(向北),"121.500599, 25.028737"
34452,10171,萬華車站,Wanhua Station,22,,0,121.501128,25.033974,康定路廣二廣長旁停車彎(向北),"121.501128, 25.033974"
34453,10171,捷運龍山寺站,MRT Longshan Temple Station,23,,0,121.5004797,25.03542208,和平西路三段105號同向(向西),"121.5004797, 25.03542208"
34454,10171,龍山寺(西園),Longshan Temple(Xiyuan),24,,0,121.4996729,25.03777047,西園路一段131號同向(向北),"121.4996729, 25.03777047"
34455,10171,桂林路,Guilin Rd.,25,,0,121.501064,25.03837413,桂林路84之1號同向(向東),"121.501064, 25.03837413"
34456,10171,龍山寺(康定),Longshan Temple(Kangding),26,,0,121.5012851,25.03630505,康定路191號對面(向南),"121.5012851, 25.03630505"
34457,10171,萬華車站,Wanhua Station,27,,1,121.5010585,25.03486363,康定路348號同向(向南),"121.5010585, 25.03486363"
34458,10171,萬大路,Wanda Rd.,29,,1,121.500473,25.030744,萬大路76號同向(向南),"121.500473, 25.030744"
34181,10151,大觀國小,Daguan Elementary School,41,,0,121.44981,25.00837,大觀路一段31號(向東),"121.44981, 25.00837"
34182,10151,接雲寺,Jieyun Temple,42,-1,0,121.45425,25.00964,西門街55巷11號(向北),"121.45425, 25.00964"
34184,10151,北門街,Beimen St.,44,-1,0,121.456883,25.010986,板橋區北門街15號前(向東),"121.456883, 25.010986"
34187,10151,板橋車站(文化路),Banqiao Rail Sta.(Wenhua Rd.),47,,0,121.462964,25.015838,文化路一段161號對向(向北),"121.462964, 25.015838"
59775,10732,安和路口,Anhe Rd. Intersection,60,-1,0,121.5068105,24.99802917,中和路248號同向(向西),"121.5068105, 24.99802917"
59776,10732,國泰新村(興隆),Guotai New Village(Xinglong),87,,1,121.562389,24.98292781,興隆路四段205號(向北),"121.562389, 24.98292781"
34188,10151,中山國中,Zhongshan Junior High School,48,,0,121.465129,25.018614,文化路一段120號同向(向北),"121.465129, 25.018614"
33898,10148,三峽國小(三鶯國民運動中心),Sanxia Elementary School(Sanying Civil Sports Center),1,-1,0,121.369458,24.935981,地標同向 (向東),"121.369458, 24.935981"
33899,10148,新興街口,Xinxing St. Entrance,2,,0,121.372124,24.936067,文化路63號(向東),"121.372124, 24.936067"
33900,10148,三峽老街(民生街),Sanxia Old St.(Minsheng St.),3,-1,0,121.3741,24.935495,民生街105號(向北),"121.3741, 24.935495"
33902,10148,三峽國中,Sanxia Junior High School,5,-1,0,121.370933,24.938441,復興路153號(向西),"121.370933, 24.938441"
33903,10148,臺北大學(三峽校區),Nat'l Taipei U. (Sanxia Campus),7,-1,0,121.367802,24.939065,復興路255之1號對面(向西),"121.367802, 24.939065"
33904,10148,恩主公醫院,Enzhugong Hospital,8,-1,0,121.3635229,24.93883104,復興路373號對面(向西),"121.3635229, 24.93883104"
33905,10148,客家文化園區,Hakka Museum,9,,0,121.3563861,24.94094701,地標同向(向南),"121.3563861, 24.94094701"
33907,10148,陶瓷博物館,Yingge Ceramics Museum,10,-1,0,121.352531,24.950267,文化路395號前(向北),"121.352531, 24.950267"
33909,10148,中鶯,Zhongying,11,-1,0,121.352304,24.955016,中正一路108號(向北),"121.352304, 24.955016"
33910,10148,鶯歌區公所,Yingge District Office,12,-1,0,121.353589,24.956357,鶯歌區仁愛路13號對面(向東),"121.353589, 24.956357"
33911,10148,北鶯社區,Beiying Community,14,-1,0,121.356936,24.956605,建國路6號對面(向北),"121.356936, 24.956605"
33912,10148,高明寺,Gaoming Temple,15,,0,121.362471,24.956647,中正一路444號(向東),"121.362471, 24.956647"
33913,10148,牛灶坑,Niuzaokeng,16,-1,0,121.364477,24.95636,中正一路460號(向東),"121.364477, 24.95636"
33915,10148,茶山,Chashan,17,,0,121.371496,24.95874,茶山同向(向東),"121.371496, 24.95874"
33916,10148,阿南坑,Anankeng,18,-1,0,121.37683,24.96213,中正一路499號對向(向北),"121.37683, 24.96213"
33917,10148,風路坑,Fenglukeng,19,-1,0,121.38283,24.966162,中山路三段206號對向(向北),"121.38283, 24.966162"
33918,10148,樂山,Leshan,20,-1,0,121.386036,24.96824056,中山路三段200號對面(向北),"121.386036, 24.96824056"
33919,10148,淨律寺,Jinglu Temple,21,-1,0,121.38873,24.96984,中山路三段180號(向北),"121.38873, 24.96984"
33923,10148,山佳國小,Sanjia Elementary School,24,-1,0,121.401953,24.975625,中山路三段237號(向北),"121.401953, 24.975625"
33924,10148,東山,Dongshan,25,-1,0,121.40695,24.97919,中山路二段131號(向北),"121.40695, 24.97919"
33926,10148,東昇福德宮,Dongsheng Fude Temple,27,-1,0,121.412604,24.982578,中山路二段156之2號對面(向北),"121.412604, 24.982578"
33927,10148,東昇公園,Dongsheng Park,28,-1,0,121.415842,24.984168,新北市樹林區中山路2段68號對面(向北),"121.415842, 24.984168"
198789,16717,內南里,Neinan Village,4,0,0,121.504014,24.982892,,"121.504014, 24.982892"
198802,16950,職員宿舍觀景台,Staff Dorm ScenicOverlook,22,0,0,121.86129,25.123265,,"121.86129, 25.123265"
198803,16950,銅?仔,Tongkuangzai,23,0,0,121.861348,25.118833,,"121.861348, 25.118833"
198804,16950,洞頂路101巷,Dongding Rd. Lane 101,24,0,0,121.860769,25.120035,,"121.860769, 25.120035"
34147,10151,圳安里,ZunAn Village,5,-1,0,121.427744,25.005066,俊英街96號同向(向西),"121.427744, 25.005066"
34148,10151,新日興,XinRiXing Company,6,,0,121.4263218,25.007465,新北市樹林區俊英街174號(向西),"121.4263218, 25.007465"
34149,10151,圳民里,ZunMin Village,8,-1,0,121.4244533,25.011713,新北市樹林區俊英街141號對面(向北),"121.4244533, 25.011713"
34150,10151,三俊街口,SanJun St. Intersection,9,,0,121.4231396,25.01413145,三俊街口(向西),"121.4231396, 25.01413145"
34151,10151,三俊街,Sanjun St.,10,-1,0,121.4203598,25.015508,新北市樹林區三俊街213號同向(向西),"121.4203598, 25.015508"
34152,10151,俊興街口,JunXing St. Intersection,11,-1,0,121.4176708,25.015585,新北市樹林區三俊街119號同向(向西),"121.4176708, 25.015585"
34153,10151,高印公司,GaoYin Company,12,-1,0,121.413921,25.015699,樹林區三俊街86號對面(向西),"121.413921, 25.015699"
34154,10151,公路新村,Gonglu New Village,13,,0,121.410695,25.014922,中正路572號對向(向東),"121.410695, 25.014922"
34155,10151,三多里,SanDuo Village,14,,0,121.4121818,25.01301809,中正路504號對向(向東),"121.4121818, 25.01301809"
34157,10151,世紀,Shiji,16,-1,0,121.412454,25.009174,保安路二段339號對面(向北),"121.412454, 25.009174"
34158,10151,中華電信,"Chunghwa Telecom Co.,Ltd",17,-1,0,121.412371,25.007453,保安街二段331號同向(向南),"121.412371, 25.007453"
34159,10151,光華,Guanghua,18,-1,0,121.412873,25.005212,新北市樹林區保安街二段267巷口(向南),"121.412873, 25.005212"
34160,10151,武林國小,Wulin Elementary School,20,-1,0,121.415266,25.002505,保安街二段161號對面(向北),"121.415266, 25.002505"
34161,10151,工業區,Industrial District,21,-1,0,121.415994,25.000401,樹林區保安街二段59號(向南),"121.415994, 25.000401"
34162,10151,潭底,TanDi,22,-1,0,121.418579,24.997451,安街一段316號對向(向東),"121.418579, 24.997451"
34163,10151,三東紡織,Sandong Textile Factory,23,,0,121.42196,24.99529,保安街一段89號同向(向南),"121.42196, 24.99529"
34164,10151,復興路,Fuxing Rd.,24,,0,121.422578,24.99463,新北市樹林區復興路(向南),"121.422578, 24.99463"
34165,10151,長壽公園,Temporary Stop,25,-1,0,121.421478,24.993269,樹林區復興路94號對面(向南),"121.421478, 24.993269"
34166,10151,樹林國小,Shulin Elementary School,26,,0,121.419531,24.990344,新北市樹林區樹林國小(向南),"121.419531, 24.990344"
34373,10161,埔墘(三民路),Puqian(Sanmin Rd.),23,-1,0,121.479351,25.01784,三民路二段31號(向北),"121.479351, 25.01784"
34374,10161,翠華新村,Cuihua New Village,24,,0,121.47961,25.022082,三民路一段63號(向北),"121.47961, 25.022082"
34376,10161,大同街口,Datong St. Entrance,26,,0,121.476954,25.025965,板橋區雙十路二段6號(向北),"121.476954, 25.025965"
58989,15224,集應廟,Yingji Temple 本路線實施行駛外側車道依序進站載客,58,,1,121.48985,25.14254282,稻香路147號對向(向北),"121.48985, 25.14254282"
59855,10474,捷運菜寮站,MRT Cailiao Sta.,44,,1,121.490697,25.059479,重新路3段捷運菜寮站A出入口前(向南),"121.490697, 25.059479"
34190,10151,捷運新埔站(文化路),MRT Xinpu Sta.(Wenhua Rd.),50,-1,0,121.46882,25.024188,文化路二段14號同向(向北),"121.46882, 25.024188"
34191,10151,新北市議會,New Taipei City Council,51,,0,121.470516,25.027135,文化路二段166號同向(向北),"121.470516, 25.027135"
34192,10151,江翠國中,Jiangcui Junior High School,52,,0,121.471658,25.028965,文化路二段266號同向(向北),"121.471658, 25.028965"
34355,10161,清和里,Qinghe Li,4,,0,121.45879,24.974282,青雲路465號(向北),"121.45879, 24.974282"
34356,10161,檳榔科,Binlangke,5,,0,121.459036,24.977846,青雲路351-1號旁青山廣場(向北),"121.459036, 24.977846"
34024,10148,三峽國小(三鶯國民運動中心),Sanxia Elementary School(Sanying Civil Sports Center),98,-1,1,121.36904,24.93604,文化路三峽國小後門對面(向西),"121.36904, 24.93604"
34194,10151,華江橋,Huajiang Bridge,54,,0,121.4760495,25.03388107,文化路二段518號同向(向東),"121.4760495, 25.03388107"
34195,10151,中國時報,China Times,55,-1,0,121.4969752,25.03545414,和平西路三段212號同向(向東),"121.4969752, 25.03545414"
34197,10151,龍山寺(康定),Longshan Temple,57,,0,121.501464,25.03631406,康定路173號(向北),"121.501464, 25.03631406"
34199,10151,西門國小(臺大醫院北護分院),Ximen Elementary School(Nat'l Taiwan U. Hospital Bei-hu Branch),59,,0,121.502463,25.042344,康定路46號對面(向北),"121.502463, 25.042344"
34200,10151,峨眉街口(中醫院區),Emei St. Entrance,60,,0,121.503074,25.044994,康定路24號同向(向北),"121.503074, 25.044994"
34201,10151,漢口街,Hankou St.,61,-1,0,121.505237,25.045991,漢口街二84號(向東),"121.505237, 25.045991"
34202,10151,中華路北站,Zhonghua Rd. North Station,62,,1,121.5087307,25.04455348,中華路一段92號(向南),"121.5087307, 25.04455348"
34203,10151,捷運西門站,MRT Ximen Station,63,,1,121.5083,25.04252,中華路一段公車專用道(向南),"121.5083, 25.04252"
34204,10151,小南門,Xiaonanmen,64,,1,121.5068125,25.03800814,中華路1段202號前桂林路口路側(向南),"121.5068125, 25.03800814"
34205,10151,龍山國中,Longshan Junior High School,65,,1,121.5038948,25.03584463,南寧路45號同向(向南),"121.5038948, 25.03584463"
34206,10151,捷運龍山寺站,MRT Longshan Temple Sta.,66,-1,1,121.49971,25.03538,和平西路三段109巷同向(向西),"121.49971, 25.03538"
34207,10151,中國時報,China Times,67,-1,1,121.4969389,25.03528635,和平西路三段199號同向(向西),"121.4969389, 25.03528635"
34208,10151,華江橋,Huajiang Bridge,68,-1,1,121.47579,25.03395,文化路二段497號同向(向南),"121.47579, 25.03395"
34210,10151,江翠國中,Jiangcui Junior High School,71,-1,1,121.470732,25.02821,文化路二段181號同向(向西),"121.470732, 25.02821"
34211,10151,捷運新埔站(文化路),MRT Xinpu Sta.(Wenhua Rd.),72,-1,1,121.468869,25.02478,文化路二段23號同向(向南),"121.468869, 25.02478"
34212,10151,致理科技大學,Chihlee University of Technology,73,,1,121.466622,25.020964,文化路一段359號同向(向南),"121.466622, 25.020964"
34214,10151,板橋車站(文化路),Banqiao Rail Sta.(Wenhua Rd.),75,-1,1,121.462646,25.016025,文化路一段161號同向(向南),"121.462646, 25.016025"
38543,10772,崁頂(中華路),Kanding(Zhonghua Rd.),47,,1,121.51156,25.02426,中華路二段670號前(向東),"121.51156, 25.02426"
59771,10731,國泰新村(興隆),Guotai New Village(Xinglong),18,,0,121.5622646,24.98254356,興隆路四段128號同向(向南),"121.5622646, 24.98254356"
181092,17557,中和教會,Zhonghe Church,19,,0,121.509353,24.993096,景平路398之2號同向(向西),"121.509353, 24.993096"
34233,10151,樹林國小,Shulin Elementary School,94,,1,121.419591,24.99026,復興路241號對向(向北),"121.419591, 24.99026"
34234,10151,長壽公園,Temporary Stop,95,-1,1,121.42164,24.993164,樹林區復興路98號(向北),"121.42164, 24.993164"
34235,10151,復興路,Fuxing Rd.,96,,1,121.422713,24.994627,新北市樹林區復興路(向北),"121.422713, 24.994627"
34238,10151,工業區,Industrial District,100,-1,1,121.416039,25.001027,新北市樹林區保安街二段(向北),"121.416039, 25.001027"
34240,10151,光華,Guanghua,102,-1,1,121.413044,25.005105,新北市樹林區保安街二段267巷口(向東),"121.413044, 25.005105"
34241,10151,中華電信,"Chunghwa Telecom Co.,Ltd",103,-1,1,121.412507,25.007119,保安街二段331號對面(向北),"121.412507, 25.007119"
34242,10151,世紀,Shiji,104,-1,1,121.41262,25.009213,保安路二段339號對面(向北),"121.41262, 25.009213"
34243,10151,保安中正路口,BaoAn & ZhongZheng Intersection,105,-1,1,121.412649,25.011514,新北市樹林區保安街三段22號同向(向北),"121.412649, 25.011514"
34245,10151,公路新村,Gonglu New Village,107,,1,121.4110483,25.0149032,中正路572號同向(向西),"121.4110483, 25.0149032"
34246,10151,高印公司,GaoYin Company,108,,1,121.413766,25.015567,三俊街74巷11號同向(向東),"121.413766, 25.015567"
34248,10151,三俊街,Sanjun St.,110,-1,1,121.419951,25.015489,三俊街195號對面(向東),"121.419951, 25.015489"
34249,10151,三俊街口,SanJun St. Intersection,111,,1,121.422906,25.014012,樹林區三俊街298號(向東南),"121.422906, 25.014012"
34250,10151,圳民里,ZunMin Village,112,-1,1,121.4243857,25.011054,新北市樹林區俊英街125號(向南),"121.4243857, 25.011054"
34251,10151,新日興,XinRiXing Company,114,,1,121.4261876,25.007382,新北市樹林區俊英街172巷對面(向東),"121.4261876, 25.007382"
34252,10151,圳安里,ZunAn Village,115,-1,1,121.42762,25.00495,俊英街96號對向(向東),"121.42762, 25.00495"
34253,10151,圳福里,ZunFu Village,118,-1,1,121.43087,25.000126,新北市樹林區樹新路211號同向(向南),"121.43087, 25.000126"
34254,10151,十三公,Shisangong,119,,1,121.429919,24.998348,樹新路233號(向南),"121.429919, 24.998348"
34377,10161,雙十路,Shuangshi Rd. Entrance,27,,0,121.4733352,25.02932746,雙十路二段150號同向(向西),"121.4733352, 25.02932746"
34378,10161,捷運江子翠站,MRT Jiangzicui Sta.,28,,0,121.47362,25.03116,文化路二段384號同向(向東),"121.47362, 25.03116"
34383,10161,祖師廟(康定),Zushi Temple,33,,0,121.5019792,25.03968147,康定路123號北側(暫調康定路99號)(向北),"121.5019792, 25.03968147"
34387,10161,中華路北站,Zhonghua Rd. N. Stop,37,,1,121.5087651,25.04458462,中華路一段92號路側(向南),"121.5087651, 25.04458462"
34388,10161,捷運西門站,MRT Ximen Station,38,,1,121.5078874,25.04164924,中華路一段166號路側(向南),"121.5078874, 25.04164924"
34394,10161,江翠國小(文化路),MRT Jiangzicui Sta.,44,,1,121.47366,25.03163,文化路二段389號同向(向西),"121.47366, 25.03163"
34395,10161,雙十路,Shuangshi Rd.,45,,1,121.47317,25.02918,雙十路二段167號同向(向東),"121.47317, 25.02918"
34398,10161,翠華新村,Cuihua New Village,48,,1,121.4793882,25.02236217,三民路一段70號同向(向南),"121.4793882, 25.02236217"
34399,10161,埔墘(三民路),Puqian(Sanmin Rd.),49,-1,1,121.47911,25.017161,三民路2段72號(向南),"121.47911, 25.017161"
34400,10161,長壽里,President Textile,50,,1,121.478906,25.014186,三民路二段202-10號(向南),"121.478906, 25.014186"
34403,10161,積穗(員山路),Jisui(Yuanshan Rd.),53,-1,1,121.479635,25.00686,新北市中和區員山路521號(向南),"121.479635, 25.00686"
34404,10161,積穗國中,Jisui Junior High School,56,-1,1,121.481193,25.000604,員山路321號同向(向南),"121.481193, 25.000604"
34407,10161,中和高中,Zhonghe Senior High School,59,,1,121.4785758,24.99417751,連城路454號同向(向西),"121.4785758, 24.99417751"
34408,10161,駕訓中心,Drivers Training Center,60,,1,121.47477,24.99121,金城路三段506號旁30公尺(向南),"121.47477, 24.99121"
58988,15224,集應廟,Yingji Temple 本路線實施行駛外側車道依序進站載客,39,,0,121.4898606,25.14232655,稻香路147號同向(向南),"121.4898606, 25.14232655"
34357,10161,清水派出所,Qingshui Police Substation,6,,0,121.4591,24.979825,青雲路289號(向北),"121.4591, 24.979825"
34358,10161,清水,Qingshui,7,-1,0,121.459236,24.982403,青雲路199號(向北),"121.459236, 24.982403"
34359,10161,臺灣新北地方法院(金城),Taiwan New Taipei District Court(Jincheng),8,-1,0,121.459549,24.98446,金城路二段200號同向(向東),"121.459549, 24.98446"
34360,10161,清水國小,Qingshui Elementary School,9,,0,121.462871,24.985364,金城路二段374號對向(向北),"121.462871, 24.985364"
34361,10161,永豐路口,Yongfeng Rd. Entrance,10,,0,121.465217,24.986269,金城路三段48號(向北),"121.465217, 24.986269"
34362,10161,平和里,Pinghe Village,11,,0,121.468935,24.988257,金城路三段同向(向北),"121.468935, 24.988257"
34363,10161,變電所,Transformer Station,12,,0,121.47114,24.989461,金城路三段231號(向北),"121.47114, 24.989461"
34364,10161,駕訓中心,Drivers Training Center,13,,0,121.477332,24.992043,金城路三段中油東側30公尺(向北),"121.477332, 24.992043"
34365,10161,中和高中(員山路),Zhonghe High School(Yuanshan Rd.),15,-1,0,121.481263,24.996623,員山路144號(向北),"121.481263, 24.996623"
34523,10172,和平西路一段,Heping W. Rd. Sec. 1,36,0,1,121.517263,25.026994,和平西路一段102號同向(向西),"121.517263, 25.026994"
34524,10172,重慶南路三段(中正橋),Chongqing S. Road Sec. 3(Zhongzheng Bridge),37,0,1,121.516528,25.024804,重慶南路3段118號(向南),"121.516528, 25.024804"
34526,10172,文化路,Wenhua Rd.,38,0,1,121.514936,25.015124,文化路36號(向西),"121.514936, 25.015124"
34527,10172,頂溪國小,Dingxi Elementary School,39,0,1,121.5120839,25.0155132,文化路168號(向西),"121.5120839, 25.0155132"
34528,10172,文化里,Wenhua Village,40,0,1,121.5093964,25.01598667,保安路104號同向(向南),"121.5093964, 25.01598667"
34529,10172,保安路,Baoan Rd.,41,0,1,121.5071126,25.01333,新北市保安路228號(向南),"121.5071126, 25.01333"
34530,10172,永平路,Yongping Rd.,42,0,1,121.5078443,25.01169653,仁愛路276號對向(向東),"121.5078443, 25.01169653"
34531,10172,仁愛公園,Renai Park,43,0,1,121.50588,25.00985,仁愛路275號(向西),"121.50588, 25.00985"
34532,10172,莊仁橋,Zhuangren Bridge,44,0,1,121.5033866,25.00793778,仁愛路296號(向西),"121.5033866, 25.00793778"
34533,10172,莊敬路,Zhuangjing Rd.,45,0,1,121.5015349,25.00614779,莊敬路49像29弄2號同向(向西),"121.5015349, 25.00614779"
34534,10172,莊敬路口,Zhuangjing Rd. Intersection,46,0,1,121.4998782,25.00452517,莊敬路(向西),"121.4998782, 25.00452517"
34535,10172,大潤發,RT-Mart,47,0,1,121.4993988,25.00286514,福祥路7號同向(向南),"121.4993988, 25.00286514"
34537,10172,連城景平路(暫時裁撤),Liancheng & Jingping Rd.,49,0,1,121.496122,24.99960298,連城路114號(向西),"121.496122, 24.99960298"
34538,10172,中和國稅局,Zhonghe National Tax Administration,50,0,1,121.4948985,24.99825646,連城路146號(向西),"121.4948985, 24.99825646"
34462,10171,果菜市場,Wholesale Fruit and Vegetable Market,33,-1,1,121.4974644,25.01985027,萬大路478號同向(向南),"121.4974644, 25.01985027"
34220,10151,國立臺灣藝術大學,National Taiwan University of Arts,81,-1,1,121.4476185,25.00721049,大觀路一段55號同向(向南),"121.4476185, 25.00721049"
34222,10151,板橋榮家,Banqiao Veterans Home,83,-1,1,121.44576,25.00136,大觀路二段32號(向南),"121.44576, 25.00136"
34223,10151,力行新村,Lixing New Village,84,,1,121.44335,24.99931,大觀路二段251號(向西),"121.44335, 24.99931"
33943,10148,林家花園,Lin Family Garden,44,-1,0,121.4545959,25.01118631,西門街16號同向(向東),"121.4545959, 25.01118631"
35015,10195,長風新城,Changfeng New Village,118,,1,121.44193,24.976292,中央路二段路168號同向(向南),"121.44193, 24.976292"
35016,10195,土城農會,Tucheng Farmers Assoc.,119,,1,121.44138,24.97428,中央路二段路268號同向(向南),"121.44138, 24.97428"
35017,10195,土城,Tucheng,120,,1,121.43998,24.97136,中央路二段374號同向(向南),"121.43998, 24.97136"
35018,10195,中華路口,Zhonghua Rd. Entrance,121,,1,121.438648,24.969364,中央路三段22號對向(向南),"121.438648, 24.969364"
35020,10195,中央路三段,Zhongyang Rd. Sec. 3,123,,1,121.4334,24.96564,中央路三段140號同向(向南),"121.4334, 24.96564"
35021,10195,土城國中,Tucheng Junior High School,124,,1,121.42989,24.96478,中央路三段208號同向(向南),"121.42989, 24.96478"
35023,10195,土城工業區,Tucheng Industrial Dist.,126,,1,121.424821,24.962652,中央路四段25號對向(向南),"121.424821, 24.962652"
35024,10195,大暖路口,Danuan Rd. Entrance,127,-1,1,121.4223813,24.96195809,中央路四段45號對向(向南),"121.4223813, 24.96195809"
35026,10195,頂埔,Dingpu,129,,1,121.416875,24.958125,中央路四段118號同向(向南),"121.416875, 24.958125"
35027,10195,頂埔國小,Dingpu Elementary School,130,-1,1,121.413997,24.956231,中央路四段302號同向(向南),"121.413997, 24.956231"
35028,10195,太陽城社區,Instruction Center,131,,1,121.41202,24.95344,中央路四段412號同向(向南),"121.41202, 24.95344"
163429,10329,安華路口,Anhua Rd. Intersection,85,,1,121.52132,24.96389,安康路一段244之1號(向西),"121.52132, 24.96389"
14291,10732,遠東世紀,Far Eastern Century,0,,0,121.551066,24.983425,寶橋路(向南),"121.551066, 24.983425"
181095,17557,安和路口,Anhe Rd. Entrance,22,,0,121.507121,24.998049,景安路73號(向北),"121.507121, 24.998049"
177925,16542,芝蘭路口,Zhilan Rd. Intersection,19,,0,121.459601,25.247022,三芝區土地公坑73之18號對面(向南),"121.459601, 25.247022"
177926,16542,淡金濱海路口,Tamjin & Beihai Intersection,36,,0,121.4468647,25.190072,淡水區淡金路二段517號,"121.4468647, 25.190072"
177927,16542,淡金新市一路口,Tamjin & Xinshi 1st Rd. Intersection,39,,0,121.4499877,25.182424,淡水區淡金路二段125號,"121.4499877, 25.182424"
177929,16542,馬偕醫學院,Mackay Medical College,113,,1,121.49709,25.253731,三芝區馬偕醫學院前候車亭(向西),"121.49709, 25.253731"
35030,10195,德門廟,Demen Temple,133,-1,1,121.4065648,24.948131,介壽路三段永力汽車前同向(向南),"121.4065648, 24.948131"
35031,10195,長壽山,Changshoushan,134,,1,121.404,24.94539,介壽路三段225號旁約15公尺同向(向南),"121.404, 24.94539"
35032,10195,龍田社區,Longtian Community,135,,1,121.40262,24.94426,介壽路三段211號同向(向南),"121.40262, 24.94426"
35033,10195,溪北里,Xibei Village,136,,1,121.401205,24.943423,介壽路三段163號同向(向南),"121.401205, 24.943423"
35034,10195,加油站,Gas Sta.,137,,1,121.397735,24.941729,介壽路三段加油站對面對向(向南),"121.397735, 24.941729"
35035,10195,介壽路三段,Jieshou Rd. Sec. 3,138,,1,121.3955,24.93879,介壽路三段97號同向(向南),"121.3955, 24.93879"
35036,10195,橫溪,Hengxi,139,,1,121.395702,24.937009,介壽路三段(向南),"121.395702, 24.937009"
35037,10195,林厝,Lincuo,140,,1,121.39332,24.93579,介壽路二段112號同向(向南),"121.39332, 24.93579"
35038,10195,溪南里,Xinan Village,141,,1,121.39094,24.935396,介壽路二段55號同向(向南),"121.39094, 24.935396"
35039,10195,員潭仔溝,Yuantanzigou,142,-1,1,121.386343,24.933125,介壽路一段389號同向(向南),"121.386343, 24.933125"
35040,10195,介壽路一段412巷,Jusheng Co.,143,-1,1,121.38342,24.93097,介壽路一段396號對向(向南),"121.38342, 24.93097"
35041,10195,怡華,Yihua,144,,1,121.38108,24.93049,介壽路一段322號(向北),"121.38108, 24.93049"
35042,10195,介壽里,Jieshou Village,145,,1,121.3778135,24.929413,大同路22號號前,"121.3778135, 24.929413"
35044,10195,大同路,Datong Rd.,146,,1,121.375451,24.927604,大同路98之3號同向(向南),"121.375451, 24.927604"
35045,10195,安溪國中,Anxi Junior High School,147,-1,1,121.37274,24.92667,大同路168號同向(向南),"121.37274, 24.92667"
35046,10195,新社區,Xinshequ,148,-1,1,121.372748,24.928182,中正路一段181號同向(向北),"121.372748, 24.928182"
35048,10195,礁溪里,Jiaoxi Village,150,,1,121.3755313,24.93349747,介壽路一段30號(向北),"121.3755313, 24.93349747"
35049,10195,三峽老街(復興路),Sanxia Old St.(Fuxing Rd.),151,-1,1,121.3740488,24.936473,三峽區復興路36之6(向西),"121.3740488, 24.936473"
35050,10195,復興路,Fuxing Rd.,152,,1,121.37294,24.937495,復興路11號(向北),"121.37294, 24.937495"
35054,10195,學成路,Xuecheng Rd.,155,-1,1,121.37434,24.94144,學成路224號對面同向(向南),"121.37434, 24.94144"
35056,10195,學勤路,Xuecheng Rd.,158,,1,121.37486,24.94605,學勤路大德路旁約30公尺(向北),"121.37486, 24.94605"
35071,10196,大學風呂(大義路),Daxue Fenglu Community(Dayi Rd.),3,0,0,121.3775706,24.94675265,大義路257號(向北),"121.3775706, 24.94675265"
35072,10196,學勤路,Xueqing Rd.,5,0,0,121.37483,24.94629,學勤路103號同向(向南),"121.37483, 24.94629"
35073,10196,臺北大學正門,Nat'l Taipei U. (Main Gate),6,0,0,121.37368,24.94489,臺北大學正門(向南),"121.37368, 24.94489"
35075,10196,龍恩公園,Longne Park,9,0,0,121.3709899,24.94137,新北市三峽區國慶路新建社區前,"121.3709899, 24.94137"
35080,10196,三峽老街(復興路),Sanxia Old St.(Fuxing Rd.),13,0,0,121.3741879,24.93608309,三峽區復興路11號(向東),"121.3741879, 24.93608309"
35082,10196,介壽國小,Jieshou Elementary School,15,0,0,121.379262,24.93019,介壽路一段235號(向東),"121.379262, 24.93019"
35083,10196,怡華,Yihua,16,0,0,121.381785,24.930317,介壽路一段337號同向(向北),"121.381785, 24.930317"
35120,10196,中和高中,Zhonghe Senior High School,52,0,0,121.4789782,24.99430779,連城路573號同向(向北),"121.4789782, 24.99430779"
35127,10196,連城中和路口,Liancheng Zhonghe Rd. Entrance,59,0,0,121.498554,25.001978,新北市土城區連城路29號(向北),"121.498554, 25.001978"
35128,10196,廟美里,Miaomei Li,60,0,0,121.5003993,25.00264981,中山路二段185號同向(向東),"121.5003993, 25.00264981"
35129,10196,南山高中(中山路),Nanshan High School,61,0,0,121.5026,25.00337,中山路二段131號同向(向東),"121.5026, 25.00337"
35130,10196,佳和公園,Pumping Station,62,0,0,121.504479,25.00499,新北市中和區中山路二段47號前,"121.504479, 25.00499"
35131,10196,保生路口,Baosheng Rd. Entrance,63,0,0,121.507495,25.007415,中山路一段299號同向(向東),"121.507495, 25.007415"
35132,10196,永平高中,Yongping High School,64,0,0,121.50974,25.00919,中山路一段175之1號同向(向東),"121.50974, 25.00919"
35133,10196,中山路口,Zhongshan Rd. Intersection,65,0,0,121.51308,25.01056,中山路一段51號同向(向東),"121.51308, 25.01056"
35134,10196,捷運頂溪站,MRT Dingxi Sta.,66,0,0,121.515273,25.01258,永和路二段80號(向北),"121.515273, 25.01258"
35137,10196,寧波重慶路口,Ningbo & Chongqing Intersection,69,0,0,121.5155658,25.02907366,重慶南路三段(向北),"121.5155658, 25.02907366"
35085,10196,員潭仔溝,Yuantanzigou,18,0,0,121.3866366,24.93307081,介壽路一段530號同向(向北),"121.3866366, 24.93307081"
35086,10196,溪南里,Xinan Village,19,0,0,121.39106,24.93521,介壽路二段34之2號(向北),"121.39106, 24.93521"
35087,10196,林厝,Lincuo,20,0,0,121.393817,24.935708,介壽路二段134號(向東),"121.393817, 24.935708"
35088,10196,橫溪,Hengxi,21,0,0,121.395837,24.937183,介壽路三段48號(向北),"121.395837, 24.937183"
35090,10196,加油站,Gas Sta.,23,0,0,121.398554,24.941784,介壽路三段118號旁約20公尺(向北),"121.398554, 24.941784"
35092,10196,龍田社區,Longtian Community,25,0,0,121.403346,24.944505,介壽路三段溪北幹47(向北),"121.403346, 24.944505"
35093,10196,長壽山,Changshoushan,26,0,0,121.404395,24.945465,介壽路三段227號(向北),"121.404395, 24.945465"
35094,10196,德門廟,Demen Temple,27,0,0,121.40683,24.94828,介壽路三段溪北幹64(向北),"121.40683, 24.94828"
35095,10196,媽祖田,Mazutian,28,0,0,121.411206,24.951976,中央路四段307號同向(向北),"121.411206, 24.951976"
35096,10196,太陽城社區,Instruction Center,29,0,0,121.41214,24.95341,中央路四段281號同向(向北),"121.41214, 24.95341"
35097,10196,頂埔國小,Dingpu Elementary School,30,0,0,121.414282,24.956227,中央路四段205號同向(向北),"121.414282, 24.956227"
35100,10196,大暖路口,Danuan Rd. Entrance,32,0,0,121.42204,24.96147,中央路四段49號同向(向北),"121.42204, 24.96147"
35101,10196,土城工業區,Tucheng Industrial Dist.,33,0,0,121.425079,24.962537,中央路四段23號同向(向北),"121.425079, 24.962537"
35102,10196,福德宮,Fude Temple,34,0,0,121.427371,24.963818,中央路四段29號(向北),"121.427371, 24.963818"
35103,10196,土城國中,Tucheng Junior High School,35,0,0,121.430929,24.964872,中央路三段187號同向(向北),"121.430929, 24.964872"
35104,10196,中央路三段,Zhongyang Rd. Sec. 3,36,0,0,121.434258,24.965538,中央路三段119號(向北),"121.434258, 24.965538"
35105,10196,捷運永寧站,MRT Yongning Station,37,0,0,121.4365891,24.96693499,中央路三段99號同向三號出口(向北),"121.4365891, 24.96693499"
35106,10196,忠義路口,Zhongyi Rd. Entrance,38,0,0,121.439524,24.968824,金城路一段8-1號同向(向東北),"121.439524, 24.968824"
35107,10196,土城區公所,Tucheng Dist. Office,39,0,0,121.443347,24.971621,金城路一段72號同向(向北),"121.443347, 24.971621"
35108,10196,捷運土城站,MRT Tucheng Station,40,0,0,121.44545,24.974043,金城路一段70號同向(向東),"121.44545, 24.974043"
35109,10196,土城醫院,Tucheng Hospital,41,0,0,121.448771,24.976884,金城路二段6號前(向北),"121.448771, 24.976884"
35111,10196,新北高工(金城),New Taipei Vocational High School(Jincheng),43,0,0,121.45237,24.97978,金城路二段52號同向(向北),"121.45237, 24.97978"
35112,10196,裕民路口(金城路),Yumin Rd. Entrance,44,0,0,121.454642,24.981473,土城區金城路2段156號前(往東北),"121.454642, 24.981473"
35113,10196,中正國中,Zhongzheng Junior High School,45,0,0,121.456615,24.982947,金城路二段路228號同向(向北),"121.456615, 24.982947"
35195,10196,媽祖田,Mazutian,127,0,1,121.410662,24.951531,中央路四段436號(向南),"121.410662, 24.951531"
35155,10196,捷運頂溪站,MRT Dingxi Sta.,87,0,1,121.515577,25.01443046,永和路二段237-1號(向南),"121.515577, 25.01443046"
35156,10196,中興街口,Zhongxing St. Entrance,88,0,1,121.5147464,25.0115956,永和路二段85號同向(向南),"121.5147464, 25.0115956"
35157,10196,中山路口,Zhongshan Rd. Intersection,89,0,1,121.5126727,25.01075535,中山路一段64號(向西),"121.5126727, 25.01075535"
35158,10196,永平高中,Yongping High School,90,0,1,121.50956,25.009358,中山路一段166號同向(向南),"121.50956, 25.009358"
35160,10196,佳和公園,Jiahe Park,92,0,1,121.504269,25.004997,中山路二段36號(向南),"121.504269, 25.004997"
35161,10196,南山高中(中山路),Nanshan High School,93,0,1,121.5024348,25.00349205,中山路二段132號(向西),"121.5024348, 25.00349205"
35162,10196,廟美里,Miaomei Village,94,0,1,121.5005133,25.00280388,中山路二段178巷(向西),"121.5005133, 25.00280388"
35163,10196,連城中和路口,Liancheng Zhonghe Rd. Entrance,95,0,1,121.498749,25.002187,新北市土城區連城路24號(向南),"121.498749, 25.002187"
35166,10196,台貿一村,Taimao Village 1,98,0,1,121.4922544,24.99673,連城路192號同向(向西),"121.4922544, 24.99673"
35167,10196,連城錦和路口(暫時裁撤),Liancheng & JinheIntersection,99,0,1,121.4902015,24.99645348,連城路224號(向西),"121.4902015, 24.99645348"
35169,10196,連城路,Liancheng Rd.,101,0,1,121.4827856,24.99574617,連城路328號同向(向西),"121.4827856, 24.99574617"
35173,10196,平和里,Pinghe Village,105,0,1,121.468808,24.988513,金城路三段157號同向(向南),"121.468808, 24.988513"
35176,10196,臺灣新北地方法院(金城),New Taipei District Court(Jincheng),108,0,1,121.459145,24.984575,金城路二段312號對向(向南),"121.459145, 24.984575"
35178,10196,裕民路口(金城路),Yumin Rd. Entrance,110,0,1,121.45461,24.98184,金城路二段205號(向西),"121.45461, 24.98184"
35179,10196,新北高工(金城),New Taipei Vocational High School(Jincheng),111,0,1,121.45213,24.97976,金城路二段52號對面(向南),"121.45213, 24.97976"
35180,10196,柑林橋,Ganlin Bridge,112,0,1,121.450533,24.978481,金城路二段28號對面(向南),"121.450533, 24.978481"
35181,10196,土城醫院,Tucheng Hospital,113,0,1,121.44737,24.97613,金城路一段102號同向(向西),"121.44737, 24.97613"
35182,10196,捷運土城站,MRT Tucheng Station,114,0,1,121.444004,24.972964,金城路一段(向南),"121.444004, 24.972964"
35183,10196,土城區公所,TuCheng Dist. Office,115,0,1,121.44303,24.97172,金城路一段72號同向(向西),"121.44303, 24.97172"
35185,10196,捷運永寧站,MRT Yongning Station,117,0,1,121.436598,24.967342,中央路三段70號同向(向南),"121.436598, 24.967342"
35208,10196,介壽國小,Jieshou Elementary School,140,0,1,121.3792551,24.930438,新北市三峽區介壽路一段235號(向西),"121.3792551, 24.930438"
35216,10196,臺北大學正門,Nat'l Taipei U. (Main Gate),148,0,1,121.373877,24.944914,臺北大學正門(向北),"121.373877, 24.944914"
35218,10196,大學風呂(大義路),Daxue Fenglu Community(Dayi Rd.),150,0,1,121.37729,24.94671,大義路258號旁同向(向南),"121.37729, 24.94671"
35188,10196,福德宮,Fude Temple,120,0,1,121.427601,24.964222,中央路三段248號同向(向南),"121.427601, 24.964222"
10356,10424,勞工活動中心,Labors’ Activity Center,5,,0,121.450092,25.06236578,五工六路16號(向北),"121.450092, 25.06236578"
10406,10424,勞工活動中心,Labors’Activity Center,45,,1,121.4501639,25.06215823,五工六路16號同向(向南),"121.4501639, 25.06215823"
10448,10475,金陵女中,Ginling Girls' High School,20,,0,121.4665635,25.0427471,重新路五段656號同向(向北),"121.4665635, 25.0427471"
10480,10475,金陵女中,Ginling Girls' High School,38,,1,121.466676,25.043117,重新路五段643號同向(向南),"121.466676, 25.043117"
38267,10753,草地頭,Caoditou,35,-1,0,121.622497,25.0049371,北深路一段361號同向(向東),"121.622497, 25.0049371"
38283,10753,外埔,Waipu,50,,0,121.65515,24.994154,石崁15號對向(向南),"121.65515, 24.994154"
38301,10753,雙溪口,Shuangxikou,92,-1,1,121.65171,25.00586,雙溪62號對向(向北),"121.65171, 25.00586"
14947,10173,聯合醫院婦幼院區,TCUH Branch of Women and Children,41,0,0,121.51811,25.02856,福州街16-3號同向(向東),"121.51811, 25.02856"
14948,10173,聯合醫院婦幼院區一,TCUH Branch of Women and Children 1,42,0,0,121.5183087,25.02997969,南昌路一段141號同向(向北),"121.5183087, 25.02997969"
14954,10173,一女中(貴陽),Taipei First Girls High School(Guiyang),46,0,0,121.5144987,25.03865608,貴陽街一段對向(向西),"121.5144987, 25.03865608"
154157,16732,淡海,Danhai,11,,0,121.42021,25.18507,淡海路215號(向南),"121.42021, 25.18507"
154158,16732,淡水拖吊場,Tamsui Towing Yard,12,,0,121.42182,25.18254,沙崙路131巷口(向南),"121.42182, 25.18254"
154159,16732,大河文明,Dahewenming,13,,0,121.423376,25.182854,新北市淡水區沙崙路126號(向北),"121.423376, 25.182854"
183895,17625,迴龍派出所,Huilong Police Substation,4,,0,121.40894,25.019057,萬壽路一段111號同向(向北),"121.40894, 25.019057"
183896,17625,捷運迴龍站,MRT Huilong Station,5,,0,121.411687,25.021617,中正路895號之29號(向北),"121.411687, 25.021617"
57116,10784,湯泉櫻花(中山路口),Tangquanyinghua(Zhongshan Intersection ),17,,1,121.52387,24.977944,新北市新店區溪園路513號(向北),"121.52387, 24.977944"
154160,16732,果嶺大道,Guoling Blvd.,14,,0,121.425823,25.184784,新北市淡水區沙崙路242號(向北),"121.425823, 25.184784"
33935,10148,沙崙里,Shalun Li,36,-1,0,121.432175,24.994874,沙崙里一段39號(向北),"121.432175, 24.994874"
33937,10148,力行新村,Lixing New Village,38,-1,0,121.443597,24.999139,大觀路二段241號(向東),"121.443597, 24.999139"
58026,11244,家樂福,Carrefour,0,,0,121.48663,25.08832,新北市三重區五華街家樂福路側(向南),"121.48663, 25.08832"
154167,16732,高爾夫山莊,Gaoerfu village,18,,0,121.4351578,25.183189,新北市淡水區新民街316號對面,"121.4351578, 25.183189"
154168,16732,新春街新民街口,Xinchun & Xinmin Intersection,19,,0,121.436362,25.181015,新北市淡水區新春街6號(向北),"121.436362, 25.181015"
154169,16732,東宇花園城,DongyuGardenCity,21,,0,121.438673,25.182192,新北市淡水區新春街84號(向北),"121.438673, 25.182192"
154170,16732,加州社區,California community,22,,0,121.441534,25.181782,新北市淡水區新春街136號(向東),"121.441534, 25.181782"
154171,16732,城堡花園,Chengbao Garden,23,,0,121.4424276,25.181397,新北市淡水區新春街127-159號對向,"121.4424276, 25.181397"
34918,10195,怡華,Yihua,21,,0,121.38187,24.93042,介壽路一段337號同向(向南),"121.38187, 24.93042"
34924,10195,介壽路三段,Jieshou Rd. Sec. 3,27,,0,121.395703,24.939072,介壽路三段101號(向北),"121.395703, 24.939072"
34926,10195,溪北里,Xibei Village,29,,0,121.401605,24.943434,介壽路三段160號(向北),"121.401605, 24.943434"
34941,10195,中華路口,Zhonghua Rd. Entrance,43,,0,121.438862,24.969338,中央路三段71號同向(向北),"121.438862, 24.969338"
34942,10195,土城,Tucheng,44,,0,121.44006,24.971552,中央路二段250號同向(向北),"121.44006, 24.971552"
34943,10195,土城農會,Tucheng Farmers Association,45,-1,0,121.44158,24.974341,中央路二段209號同向(向北),"121.44158, 24.974341"
154172,16732,摩天31,Motian 31,24,,0,121.443866,25.180868,新北市淡水區新春街190號,"121.443866, 25.180868"
154173,16732,米粉寮,Mifenliao,25,,0,121.444605,25.180626,淡水區中山北路一段80028號路燈旁(向南),"121.444605, 25.180626"
154174,16732,水碓子,Shuiduizi,26,,0,121.444271,25.178799,新北市淡水區中山北路一段160號派出所對面(向南),"121.444271, 25.178799"
154175,16732,正德國中,Zhengde Junior High School,27,,0,121.447419,25.178286,新北市淡水區北新路102號同向(向東),"121.447419, 25.178286"
154176,16732,台電宿舍,T.P.C. Dormitory,28,,0,121.449371,25.17875,新北市淡水區北新路131號對面(向北),"121.449371, 25.17875"
154177,16732,福德宮,Fude Temple,29,,0,121.4512246,25.179723,新北市淡水區北新路196號(向東),"121.4512246, 25.179723"
154178,16732,北新路口,BeixinRd.Intersection,30,,0,121.453396,25.180185,淡水區淡金路一段547號前(向東),"121.453396, 25.180185"
154179,16732,輕軌淡江大學站,Tamkang University,32,-1,0,121.456798,25.175673,新北市淡水區淡金路55080皓路燈旁(向南),"121.456798, 25.175673"
154180,16732,忠愛街口,ZhongaiSt.Intersection,33,,0,121.459249,25.171934,新北市淡水區淡金路忠愛街口(向東),"121.459249, 25.171934"
34944,10195,長風新城,Changfeng New Village,46,,0,121.44208,24.976352,中央路二段167號同向(向北),"121.44208, 24.976352"
34946,10195,中央路二段,Zhongyang Rd. Sec. 2,48,,0,121.4430948,24.98084349,中央路二段5號同向(向北),"121.4430948, 24.98084349"
34947,10195,大同莊園,Tatung Smart Manor,49,,0,121.443748,24.982863,中央路一段274號對面(向北),"121.443748, 24.982863"
34948,10195,日新里,Rixin Village,50,,0,121.4454658,24.98620028,中央路一段233號(向北),"121.4454658, 24.98620028"
34949,10195,貨饒里,Huorao Li,51,,0,121.447058,24.988564,中央路一段100號同向(向北),"121.447058, 24.988564"
34950,10195,中央路,Zhongyang Rd.,52,-1,0,121.449,24.991567,中央路一段(向北),"121.449, 24.991567"
34951,10195,南雅站,Nanya Stop,54,,0,121.45162,24.994319,南雅站地標同向(向北),"121.45162, 24.994319"
34952,10195,亞東科技大學,Oriental University of Science & Technology,55,,0,121.45373,24.995168,四川路二段57號同向(向東),"121.45373, 24.995168"
34953,10195,豫章工商,Yu Chang Technical & Commercial Vocational Senior High School,56,-1,0,121.457306,24.997381,四川路一段479號同向(向北),"121.457306, 24.997381"
34954,10195,仁愛新村,Renai New Village,57,,0,121.458394,24.999752,四川路一段361號同向(向北),"121.458394, 24.999752"
34957,10195,鄉雲里,Xiangyun Li,59,,0,121.459931,25.00437,四川路一段151號(向北),"121.459931, 25.00437"
34958,10195,後站商圈,Old Banqiao Sta. Shopping Circle,60,-1,0,121.4610433,25.00727662,板橋區館前東路54號(向東),"121.4610433, 25.00727662"
34960,10195,民權路口,Minquan Rd. Entrance,62,,0,121.46366,25.010896,中山路一段144號(向東),"121.46366, 25.010896"
34961,10195,新北市政府(新府路),New Taipei City Hall(Xinfu Rd.),63,,0,121.464544,25.012043,新北市政府西側門對面(新府路)(向北),"121.464544, 25.012043"
34962,10195,新北板橋公車站,NTPC Banqiao Bus Station,64,-1,0,121.462602,25.012813,縣民大道公車專用月台第二月台(向東),"121.462602, 25.012813"
34963,10195,新北市政府(中山路),New Taipei City Hall(Zhongshan Rd.),65,,0,121.46755,25.01269,板橋區中山路「路燈編號017547」前(向東),"121.46755, 25.01269"
34964,10195,中山漢生路口,Dongan Village,66,,0,121.470442,25.014029,中山路一段214號同向(向東),"121.470442, 25.014029"
34965,10195,西安里,Xian Village,67,,0,121.4724073,25.01497569,中山路二段20號同向(向東),"121.4724073, 25.01497569"
34966,10195,埔墘國小,Puqian Elementary School,69,,0,121.475893,25.016626,中山路二段110號同向(向東北),"121.475893, 25.016626"
34967,10195,埔墘(中山路),Puqian(Zhongshan Rd.),70,-1,0,121.47829,25.017984,中山路二段230號(向北),"121.47829, 25.017984"
34968,10195,埔墘派出所,Puqian Police Station,71,,0,121.48066,25.01945,中山路二段312號同向(向東),"121.48066, 25.01945"
34969,10195,光復橋,Guangfu Bridge,72,,0,121.483153,25.02103,中山路二段418-420號(向東),"121.483153, 25.02103"
34971,10195,華江高中(西園),Huajiang High School,74,,0,121.4961628,25.02958441,西園路二段137號同向(向北),"121.4961628, 25.02958441"
34972,10195,西園29服飾基地,Taipei Costume and Culture Center,75,,0,121.49759,25.0324,西園路二段34號對面候車亭(向北),"121.49759, 25.0324"
34973,10195,大理服飾,Dali Garments,76,,0,121.4987728,25.03418554,西園路一段215號同向(向北),"121.4987728, 25.03418554"
34981,10195,捷運西門站,MRT Ximen Station,84,,1,121.5078629,25.041656,中華路一段166號路側(向南),"121.5078629, 25.041656"
154161,16732,天生社區,Tiansheng Community,15,,0,121.427549,25.187462,新北市淡水區沙崙路381號對面北側15公尺(向北),"121.427549, 25.187462"
154163,16732,大庄,Dazhuang,8,,0,121.4260622,25.190324,新北市淡水區中正路二段301號(編號37837號電線桿旁)對面(向東),"121.4260622, 25.190324"
154164,16732,輕軌台北海洋大學站,LRT Taipei University of Marine Technology Sta.,7,-1,0,121.4268126,25.191269,淡水區濱海路三段第431564號路燈旁(向西),"121.4268126, 25.191269"
34985,10195,龍山寺(西園),Longshan Temple(Xiyuan),88,,1,121.49927,25.03611,西園路一段198號(向南),"121.49927, 25.03611"
34986,10195,大理服飾,Dali Garments,89,,1,121.49848,25.03422,西園路一段250號同向(向南),"121.49848, 25.03422"
196683,16532,朱厝,Zhucuo,65,0,0,121.565149,25.260821,新北市石門區朱厝,"121.565149, 25.260821"
196685,17575,內寮,Neiliao,23,0,0,121.6943509,25.157772,基金三路96號對面,"121.6943509, 25.157772"
196692,17548,輕軌安康站,LRT Ankang Sta.,49,0,1,121.51705,24.96515,安和路一段25-5號(向南),"121.51705, 24.96515"
35070,10196,大義路口,Dayi Rd. Entrance,2,0,0,121.378919,24.944346,大義路36號(向北),"121.378919, 24.944346"
151070,16486,捷運迴龍站,MRT Huilong Station,69,,1,121.41152,25.02188,中正路捷運迴龍站1號出口前(向南),"121.41152, 25.02188"
181094,17557,景新街口,Jingxin St. Entrance,21,,0,121.505842,24.996308,景安路121號同向(向北),"121.505842, 24.996308"
196707,10511,樹林藝文綜合行政大樓,Shulin Arts Administration Building,7,0,0,121.42796,24.995638,新北市樹林區樹新路97號對面(向北),"121.42796, 24.995638"
196708,10511,樹林藝文綜合行政大樓,Shulin Arts Administration Building,102,0,1,121.427318,24.995035,新北市樹林區樹新路65號前(向南),"121.427318, 24.995035"
183894,17625,迴龍商場,Huilong Market,3,,0,121.4070964,25.01830778,萬壽路一段163號(向東),"121.4070964, 25.01830778"
34988,10195,華江高中(西園),Huajiang High School,91,,1,121.4959508,25.02965826,西園路二段168號同向(向南),"121.4959508, 25.02965826"
34989,10195,西園路二段,Xiyuan Rd. Sec. 2,92,,1,121.49323,25.02657,西園路二段296號(向南),"121.49323, 25.02657"
34990,10195,光復橋,Guangfu Bridge,93,,1,121.483161,25.021366,中山路二段481號同向(向西),"121.483161, 25.021366"
34991,10195,埔墘派出所,Puqian Police Station,94,,1,121.48024,25.01945,中山路二段391號同向(向西),"121.48024, 25.01945"
34992,10195,埔墘(中山路),Puqian(Zhongshan Rd.),95,,1,121.4780283,25.01801278,中山路二段277號(向南),"121.4780283, 25.01801278"
34993,10195,埔墘國小,Puqian Elementary School,96,,1,121.47594,25.01679,中山路二段167號(向西),"121.47594, 25.01679"
34994,10195,西安里,Xian Li,98,,1,121.47229,25.015119,中山路二段17號(向南),"121.47229, 25.015119"
34995,10195,中山漢生路口,Zhongshan Hansheng Rd. Intersection,99,,1,121.470005,25.014023,中山路一段279號(向南),"121.470005, 25.014023"
34996,10195,新北市政府(中山路),New Taipei City Hall(Zhongshan Rd.),100,,1,121.46719,25.012734,中山路一段166號對向(向西),"121.46719, 25.012734"
34998,10195,新北市政府(新府路),New Taipei City Hall(Xinfu Rd.),102,,1,121.4643742,25.0118568,新北市政府西側門外(新府路)(向南),"121.4643742, 25.0118568"
34999,10195,民權路口,Minquan Rd. Entrance,103,,1,121.46352,25.011017,中山路一段139號(向西),"121.46352, 25.011017"
35000,10195,板橋外站,Banqiao Bus Terminal Extension,104,,1,121.461797,25.010225,中山路一段101號(向西南),"121.461797, 25.010225"
35001,10195,後站商圈,Old Banqiao Sta. Shopping Circle,105,,1,121.459999,25.0081,中山路一段7號(向南),"121.459999, 25.0081"
35002,10195,鄉雲里,Xiangyun Li,106,,1,121.459568,25.005426,四川路一段64號(向南),"121.459568, 25.005426"
35003,10195,福星里,Fuxing Village,107,,1,121.459747,25.002721,四川路一段180號同向(向南),"121.459747, 25.002721"
35005,10195,仁愛新村,Renai New Village,108,,1,121.458052,24.999454,四川路一段381號對面(向南),"121.458052, 24.999454"
35007,10195,亞東科技大學,Oriental University of Science & Technology,110,,1,121.4532287,24.99527614,四川路二段48號同向(向西),"121.4532287, 24.99527614"
35008,10195,南雅站,Nanya Stop,111,,1,121.450379,24.993821,四川路二段130巷旁(向南),"121.450379, 24.993821"
35009,10195,中央路,Zhongyang Rd.,112,,1,121.44857,24.99155,中央路一段20號(向南),"121.44857, 24.99155"
35010,10195,貨饒里,Huorao Village,113,,1,121.446613,24.98829459,中央路一段106號對向(向南),"121.446613, 24.98829459"
35011,10195,日新里,Rixin Village,114,,1,121.44529,24.98613,中央路一段190號同向(向南),"121.44529, 24.98613"
35012,10195,大同莊園,Tatung Smart Manor,115,,1,121.443694,24.983259,中央路一段303號對面(向南),"121.443694, 24.983259"
35084,10196,介壽路一段412巷,Jusheng Company,17,0,0,121.385095,24.931522,介壽路一段路燈編號197043號旁(向北),"121.385095, 24.931522"
34899,10195,姑娘廟,Guniang Temple,1,,0,121.379266,24.94237,三樹路214巷口同向(向南),"121.379266, 24.94237"
34904,10195,學成路,Xuecheng Rd.,8,-1,0,121.37419,24.9416,,"121.37419, 24.9416"
187100,17693,三港8鄰,Neighborhood 8 Sangang,1,,0,121.883907,25.053842,新北市雙溪區(向西),"121.883907, 25.053842"
151105,16668,分子尾,Fenziwei,3,,0,121.4879548,25.08727296,五華街220號對面(向西),"121.4879548, 25.08727296"
151106,16668,五華街口,Wuhua St. Entrance,4,,0,121.484541,25.088503,集賢路170號(向南),"121.484541, 25.088503"
56562,10195,學成路一,Xuecheng Rd.,160,,1,121.3768168,24.94402239,地標同向(向西),"121.3768168, 24.94402239"
34911,10195,礁溪里,Jiaoxi Li,14,,0,121.37565,24.932405,三峽區介壽路一段101巷2號對面(向南),"121.37565, 24.932405"
34912,10195,三峽分局,Sanxia Police Precinct,15,,0,121.37482,24.930115,中正路一段64號同向(向南),"121.37482, 24.930115"
34913,10195,新社區,Xin Community,16,-1,0,121.372543,24.928267,中正路一段168號(向南),"121.372543, 24.928267"
34915,10195,介壽里,Jieshou Village,19,,0,121.377385,24.928825,大同路7號(向北),"121.377385, 24.928825"
34916,10195,大同路,Datong Rd.,18,-1,0,121.375272,24.927307,大同路65號前(向北),"121.375272, 24.927307"
56565,10196,龍埔國小,Long Pu Elementary School,152,0,1,121.377036,24.940363,新北市三峽區大學路47-1號,"121.377036, 24.940363"
59890,10474,捷運頭前庄站,MRT Touqianzhuang Station,18,-1,0,121.4623098,25.03991225,中正路53號(向北),"121.4623098, 25.03991225"
59891,10474,捷運先嗇宮站,MRT Xianse Temple Station,22,-1,0,121.471374,25.046158,重新路五段捷運站B出口(向北),"121.471374, 25.046158"
59892,10474,捷運先嗇宮站,MRT Xianse Temple Station,47,-1,1,121.47048,25.046125,重新路五段545-571號間(向南),"121.47048, 25.046125"
129768,10492,天台廣場,Tiantai Square,50,,0,121.498323,25.062277,重新路二段46號(向東),"121.498323, 25.062277"
59893,10474,捷運頭前庄站,MRT Touqianzhuang Station,51,-1,1,121.462079,25.040058,中正路54號(向南),"121.462079, 25.040058"
187101,17693,慈安宮,Cian Temple,2,,0,121.879446,25.053334,新北市雙溪區(向南),"121.879446, 25.053334"
194587,17868,五福社區,Wufu Community,3,,0,121.433545,25.087079,工商路195號(向東),"121.433545, 25.087079"
58382,15224,興音寺,Xingyin Temple 本路線實施行駛外側車道依序進站載客,30,,0,121.4886169,25.163759,興福寮1之6號對面編號59077號電桿旁,"121.4886169, 25.163759"
58383,15224,興音寺,Xingyin Temple 本路線實施行駛外側車道依序進站載客,66,,1,121.4885781,25.163859,興福寮1之6號,"121.4885781, 25.163859"
45824,10784,民權工業區,Minquan Industrial Area,29,,1,121.538244,24.98279,民權路81號(向東),"121.538244, 24.98279"
38845,10784,武功國小(興隆),Wugong Elementary School(Xinglong),38,,1,121.5398685,25.00415617,興隆路一段13號斜對面(向東),"121.5398685, 25.00415617"
194588,17868,社區活動中心,Community Activity Center,4,,0,121.435723,25.086058,工商路129號(向東),"121.435723, 25.086058"
182877,16692,德音國小,Deyin Elementary School,17,-1,0,121.434261,25.071148,明德路43號(向東),"121.434261, 25.071148"
57985,5416,活力社區,Huoli Community,14,,0,121.67186,25.06652,新台五路二段238號北邊(向西),"121.67186, 25.06652"
57986,5416,活力社區,Huoli Community,75,,1,121.67208,25.06611,新台五路二段238號(向東),"121.67208, 25.06611"
151102,16668,自然公園,Nature Park,0,,0,121.48817,25.08941,集賢路159號(向北),"121.48817, 25.08941"
151103,16668,吉祥街口,Jixiang Rd. Intersection,1,,0,121.4891,25.08958,集賢路123號(向東),"121.4891, 25.08958"
151104,16668,新北高中,New Taipei Senior High School,2,,0,121.489294,25.087346,三重區三信路166號旁(向西南),"121.489294, 25.087346"
156939,16767,英專路122巷口,Yingzhuan Rd. 122th. Lane Entrance,3,,0,121.4459309,25.172172,淡水區水源街一段99號對面(向東),"121.4459309, 25.172172"
182878,16692,遠東物流,Far Eastern Logistic Co.,18,-1,0,121.4353791,25.06966085,成泰路一段56號同向(向南),"121.4353791, 25.06966085"
195893,15224,聖本篤修道院,Sheng Ben Du Monastery,83,0,1,121.455196,25.169282,鄧公路路燈56031旁(聖本篤修道院車道出口處)(向西),"121.455196, 25.169282"
58225,10453,中興路三段,Zhongxing Rd. Sec. 3,56,,1,121.4415022,25.08207123,新北市五股區中興路3段198號(向西),"121.4415022, 25.08207123"
34501,10172,保安路,Baoan Rd.,14,0,0,121.50741,25.013536,保安路125號(向北),"121.50741, 25.013536"
33920,10148,山佳,Shanjia,22,-1,0,121.3935678,24.97226366,中山路三段213號(向東),"121.3935678, 24.97226366"
129643,16500,捷運士林站(中正),MRT Shilin Sta.(Zhongzheng),37,-1,1,121.526622,25.095583,中正路208號同向(向西),"121.526622, 25.095583"
58224,10453,中興路三段,Zhongxing Rd. Sec. 3,7,,0,121.44217,25.08137,新北市五股區中興路3段199號東側10公尺(向東),"121.44217, 25.08137"
34510,10172,小南門(和平院區),Xiaonan Gate (Heping Hospital),23,0,0,121.508728,25.036841,臺北市中正區愛國西路與延平南路交叉口東側34公尺處(向西),"121.508728, 25.036841"
182879,16692,遠東物流,Far Eastern Logistic Co.,88,,1,121.435546,25.069564,成泰路一段54號(向北),"121.435546, 25.069564"
147114,16656,光華新村(安康路),Guanghua New Village(Ankang Rd.),43,-1,1,121.5182441,24.96414395,安康路1段308號對面(向西),"121.5182441, 24.96414395"
187102,17693,水尾,Shuiwei,3,,0,121.8691575,25.047969,新北市雙溪區,"121.8691575, 25.047969"
180866,17293,湖北里2.3鄰路口,Neighborhood 2.3 Hubei Village Entrance,83,,1,121.385536,25.089603,湖里2.3鄰路口(向東),"121.385536, 25.089603"
196441,17919,捷運景安站(景平路),MRT Jingan Sta.(Jingping Rd.),11,-1,1,121.504297,24.993354,新北市中和區景平路333-335之3號,"121.504297, 24.993354"
142032,16630,水碓子,Shuiduizi,87,,1,121.444377,25.178593,新北市淡水區中山北路一段168號(向北),"121.444377, 25.178593"
27896,15224,永樂巷口(中山市場),Yongle Lane Entrance 本路線實施行駛外側車道依序進站載客,8,,0,121.4426772,25.17047718,中山路77號前(向南),"121.4426772, 25.17047718"
27899,15224,淡江柏園,Danjiangboyuan 本路線實施行駛外側車道依序進站載客,12,,0,121.450727,25.169986,鄧公路29巷2-14號對面(向東),"121.450727, 25.169986"
27900,15224,國泰訓練中心,Cathay Life Insurance Training Center 本路線實施行駛外側車道依序進站載客,14,,0,121.4574515,25.168888,鄧公路260號對面,"121.4574515, 25.168888"
27901,15224,圳阿公,Zunagong 本路線實施行駛外側車道依序進站載客,16,,0,121.4614433,25.168778,鄧公路278巷口,"121.4614433, 25.168778"
27903,15224,啟新,Qixin 本路線實施行駛外側車道依序進站載客,18,,0,121.471905,25.168139,鄧公幹62 B5869(C879)電桿旁對面,"121.471905, 25.168139"
27904,15224,埔尾,Puwei,19,,0,121.476068,25.168222,樹林口23-27巷口邊有候車亭對面(向東),"121.476068, 25.168222"
27907,15224,碧湖,Bihu,23,,0,121.4853307,25.170904,淡水路燈56095號對面(向東),"121.4853307, 25.170904"
27908,15224,興福寮,Xingfuliao 本路線實施行駛外側車道依序進站載客,31,,0,121.4907252,25.163599,興福寮32之2前15尺橋邊對面,"121.4907252, 25.163599"
27909,15224,坪頂尪公廟,Pindin Angong Temple,33,-1,0,121.4846847,25.158965,台電小坪頂74-2對面(向南),"121.4846847, 25.158965"
10492,10475,海山里,Haishan Village,44,,1,121.445934,25.034808,中正路326號同向(向南),"121.445934, 25.034808"
10566,10474,捷運新莊站(新莊郵局),MRT Xinzhuang Sta.(Xinzhuang Post Office),53,,1,121.449807,25.035639,中正路178號同向(向西),"121.449807, 25.035639"
154181,16732,加油站,Gas Station,34,,0,121.4584969,25.165591,新北市淡水區淡金路187號(向西),"121.4584969, 25.165591"
154182,16732,輕軌竿蓁林站,LRT Ganzhenlin Sta.,35,-1,0,121.456039,25.161746,新北市淡水區淡金路67號前(向南),"121.456039, 25.161746"
154184,16732,輕軌紅樹林站,Bashi 1st St.,37,-1,0,121.4588816,25.15632375,中正東路二段33號對向(向南),"121.4588816, 25.15632375"
20218,10116,力行里,Lixing Village,77,,1,121.4955621,24.99317959,圓通路228號同向(向南),"121.4955621, 24.99317959"
56953,10172,莊敬路口,Zhuangjing Rd. Intersection,9,0,0,121.4998071,25.00436104,莊敬路(向東),"121.4998071, 25.00436104"
20208,10116,華夏科技大學,Hwaxia Institute,66,,1,121.50937,24.983,忠孝街2之9號同向(向西),"121.50937, 24.983"
27898,15224,鄧公里,Denggong Village 本路線實施行駛外側車道依序進站載客,11,,0,121.4480999,25.169193,學府路43號對面,"121.4480999, 25.169193"
150907,10474,龍壽里,Longshou Village,0,-1,0,121.3964751,25.016353,萬壽路一段532號對面,"121.3964751, 25.016353"
150913,16282,龍騰區,Longteng Dist.,2,,0,121.4315176,25.200863,淡水區崁頂三路80018號燈桿候車亭,"121.4315176, 25.200863"
150914,16282,鳳翔區,Fengxiang Dist.,3,-1,0,121.430555,25.199545,新市五路431152號路燈旁(向西),"121.430555, 25.199545"
150915,16282,太子廟,Taizi Temple,5,,0,121.4280892,25.19944,淡水區後洲路一段159號,"121.4280892, 25.19944"
150916,16282,新市二路二段,Xinshi 2nd Rd. Sec. 2,9,,0,121.43119,25.19406,新北市淡水區新市二燈桿編號431360號旁(向東),"121.43119, 25.19406"
150917,16282,沙崙濱海路口,Shalun & Binhai Intersection,10,,0,121.430782,25.191325,沙崙路編號431663號電桿旁(向南),"121.430782, 25.191325"
133473,16535,埤島里,Pidao Village,73,0,1,121.4440384,25.192809,淡水區中山北路B574號電線杆正對面,"121.4440384, 25.192809"
34402,10161,松下電子,Matsushita Electronics Company,52,-1,1,121.479178,25.008537,員山路506號同向(向南),"121.479178, 25.008537"
58435,5416,秀峰高中(新台五路),Xioufong High School(Xintaiwu Rd.),72,-1,1,121.660809,25.06518,新台五路二段28號(向東),"121.660809, 25.06518"
142832,16644,分坑,Fenkeng,14,0,0,121.8102571,25.018558,郵電雙柑幹158號,"121.8102571, 25.018558"
142834,16644,內柑腳,Neiganjiao,16,0,0,121.806577,25.017093,外柑村外柑路14號,"121.806577, 25.017093"
142835,16644,長源,Changyuan,17,0,0,121.8044895,25.014745,外柑村外柑路7號,"121.8044895, 25.014745"
154248,16731,伯爵山莊一,Bojue Village (1),19,,0,121.6390103,25.07383644,康寧街753巷側同向(向西),"121.6390103, 25.07383644"
142831,16644,平水,Pingshui,13,0,0,121.8134423,25.020732,上林村內平路151號,"121.8134423, 25.020732"
154249,16731,濱湖大第,BinHuDaDi,20,,0,121.6371164,25.07195441,康寧街625號同向(向南),"121.6371164, 25.07195441"
154250,16731,金龍湖,Jinlonghu,21,-1,0,121.6352014,25.07147645,明峰街10號(向西),"121.6352014, 25.07147645"
154251,16731,金龍里,Jinlong Villiage,23,-1,0,121.6310686,25.071147,新北市汐止區明峰街94-1號(向西),"121.6310686, 25.071147"
154253,16731,世電社區,Shidian Community,25,,0,121.631193,25.065928,中興路153號同向(向南),"121.631193, 25.065928"
154254,16731,社后派出所,Shehou Police Substation,26,,0,121.63321,25.063653,中興路110巷口對面(向東南),"121.63321, 25.063653"
154255,16731,中興路,Zhongxing Rd.,27,,0,121.63491,25.06172,新北市汐止區中興路25號(向南),"121.63491, 25.06172"
154256,16731,樟樹灣(中興路),Zhang Shu Wan 1,28,-1,0,121.636706,25.059709,中興路22號對面(向南),"121.636706, 25.059709"
154257,16731,南樟樹灣,South Zhang Shu River Band,29,,0,121.634221,25.057679,大同路一段227號(向西),"121.634221, 25.057679"
191280,16462,板橋夜市(南雅南路),BanQiao Night Market(Nanya S. Rd.),20,,0,121.4563695,25.006681,新北市板橋區南雅南路一段27號同向(向北),"121.4563695, 25.006681"
191281,16497,民權公園,Minquan Park,49,-1,1,121.462454,25.135149,民族路112巷(向西),"121.462454, 25.135149"
154243,16731,電力公司,Taiwan Power Company,13,,0,121.6516651,25.07298,新北市汐止區新北市汐止區汐萬路一段236號,"121.6516651, 25.07298"
154244,16731,土地公廟,Tudigong Temple,14,-1,0,121.65074,25.074347,新北市汐止區汐萬路一段288號同向,"121.65074, 25.074347"
154245,16731,凱旋大地,Kaisyuan Dadi,15,,0,121.650181,25.07563,新北市汐止區康寧街885巷口,"121.650181, 25.07563"
187125,16775,捷運淡水站,MRT Tamsui Sta.,60,0,1,121.445482,25.168631,中正東路加油站前(向西),"121.445482, 25.168631"
154246,16731,樟江大橋,Zhangjiang Bridge,16,,0,121.644525,25.075856,汐止區康寧街樟江大橋西20M對面(向西),"121.644525, 25.075856"
27895,15224,北淡水,BeiTamsui,7,,0,121.441793,25.175626,淡水區中山北路一段59號(向南),"121.441793, 25.175626"
27912,15224,吳仔厝,Dahua Recreation Center 本路線實施行駛外側車道依序進站載客,37,-1,0,121.4818,25.148933,省市交界處(界牌側),"121.4818, 25.148933"
187126,16775,永樂巷口(中山市場),Yongle Lane Entrance(Zhongshan Market),61,0,1,121.4430187,25.17060594,中山路80號同向(向西),"121.4430187, 25.17060594"
204923,16851,新五路二段(新城),Xinwu Rd Sec. 2(Xincheng),48,0,0,121.444151,25.08895,新五路二段391號(向南),"121.444151, 25.08895"
182925,16591,馬偕醫院一,Mackay Memorial Hospital 1,143,-1,1,121.4597864,25.13962433,民權路47號(向北),"121.4597864, 25.13962433"
154247,16731,伯爵山莊,Bojue Village,17,,0,121.641733,25.075359,康寧街與伯爵街入口對面(向西),"121.641733, 25.075359"
154259,16731,橫科,Hengke,31,,0,121.62132,25.05508,大同路一段4號對向(向西),"121.62132, 25.05508"
154260,16731,捷運南港展覽館站(南港路),MRT Nangang Exhibition Hall(Nangang Rd.),32,,0,121.6173421,25.05514259,南港路23號同向(向西),"121.6173421, 25.05514259"
154261,16731,南港展覽館,Nangang Exhibition Hall,33,,0,121.6156,25.05534,南港路一段75號對面(向西),"121.6156, 25.05534"
142726,16642,東和里,Donghe Village,55,,1,121.8038192,25.106304,新北市瑞芳區中山路34號,"121.8038192, 25.106304"
142727,16642,加油站,Gas Sta.,56,,1,121.801054,25.106861,新北市瑞芳區中山路200-2號(向西),"121.801054, 25.106861"
142728,16642,頂埔,Dingpu,57,,1,121.7964203,25.110147,新北市瑞芳區中山路326號旁候車亭,"121.7964203, 25.110147"
142729,16642,魚桀魚坑,Jay Fish pit,58,,1,121.7936866,25.11067,魚桀魚坑路62號右側(向西),"121.7936866, 25.11067"
142730,16642,臨時站,Temporary Stop,59,,1,121.792322,25.110541,新北市瑞芳區魚桀魚坑路92號(向西),"121.792322, 25.110541"
142731,16642,魚桀魚坑煤礦,Jieyukeng Coal Mine,60,,1,121.790282,25.109809,魚桀魚路240號,"121.790282, 25.109809"
142732,16642,瑞興新村,Ruixing New Village,61,,1,121.7883469,25.108179,魚桀魚坑路189號斜對面,"121.7883469, 25.108179"
142733,16642,七坑,Qikeng,62,,1,121.7871761,25.106275,魚桀魚坑路308號,"121.7871761, 25.106275"
142734,16642,山仔腳,Shanzaijiao,63,,1,121.7860254,25.104408,魚桀魚坑路322-5號,"121.7860254, 25.104408"
142735,16642,大寮,Daliao,65,,1,121.781986,25.098399,大寮路154-1號對面,"121.781986, 25.098399"
142736,16642,福元藥廠,Fuyuan Pharmaceutical,66,,1,121.7784039,25.099381,大寮路95之3號對面,"121.7784039, 25.099381"
142737,16642,永聯物流園區,Yonglian Distribution Park,67,,1,121.775169,25.103111,楓仔瀨路1巷6號對面,"121.775169, 25.103111"
142738,16642,楓仔瀨,Fengzailai,68,,1,121.7737623,25.106653,楓仔瀨路16之2號,"121.7737623, 25.106653"
142739,16642,中央貨櫃,Zhongyang Container,69,,1,121.77082,25.106315,楓仔瀨路36號,"121.77082, 25.106315"
142820,16644,分駐所,Police Station,1,0,0,121.8649868,25.035877,太平路67號,"121.8649868, 25.035877"
27913,15224,稻香圖書館,Daoxiang Library,40,,0,121.48958,25.13974,稻香路81號同向(向南),"121.48958, 25.13974"
27915,15224,文化國小,Wenhua Elementary School 本路線實施行駛外側車道依序進站載客,42,,0,121.4957248,25.1366901,中央北路二段25號同向(向南),"121.4957248, 25.1366901"
27916,15224,大業中央北路口,Daye & Zhongyang N.Intersection,43,,0,121.4980202,25.13559689,中央北路一段184號同向(向東),"121.4980202, 25.13559689"
27917,15224,北投國小,Beitou Elementary School 本路線實施行駛外側車道依序進站載客,44,,0,121.5007209,25.13384543,中央北路一段73號對向(向南),"121.5007209, 25.13384543"
180864,16583,華夏大飯店,Highness Hotel,44,,1,121.364466,25.061326,桃園市龜山區文化二路5號前,"121.364466, 25.061326"
142822,16644,埔尾,Puwei,3,0,0,121.8589151,25.038034,平林村12號,"121.8589151, 25.038034"
142823,16644,白灰厝,Baihuicuo,5,0,0,121.853366,25.036453,平林村43號,"121.853366, 25.036453"
142824,16644,平林活動中心,Rally Ago,6,0,0,121.84975,25.035328,平林村52號(向西),"121.84975, 25.035328"
142826,16644,竹寮坑口,Bamboo Liu Hang,8,0,0,121.84193,25.034908,平林村71號(向西),"121.84193, 25.034908"
142827,16644,番仔坑,Fanzaikeng,9,0,0,121.834054,25.03145,上林村內平路31號,"121.834054, 25.03145"
142829,16644,吊橋頭,Suspension Bridge,11,0,0,121.8263657,25.027079,上林村內平路109號,"121.8263657, 25.027079"
180865,17293,文化三路中華路口,Wunhua 3rd & Zhonghua Intersection,2,,0,121.382059,25.091441,文化三路中華路口(向西南),"121.382059, 25.091441"
154221,16732,天生社區,Tiansheng Community,77,,1,121.4274118,25.187485,新北市淡水區沙崙路331號南側20公尺,"121.4274118, 25.187485"
154222,16732,果嶺大道,Guoling Blvd.,78,,1,121.4251443,25.184489,新北市淡水區沙崙路199-6號前37034號路燈旁(向南),"121.4251443, 25.184489"
154223,16732,大河文明,Dahe Wenming,79,,1,121.423248,25.182982,新北市淡水區沙崙路141號前,"121.423248, 25.182982"
154224,16732,淡水拖吊場,Tamsui Towing Yard,80,,1,121.42199,25.18262,沙崙路131巷口(向北),"121.42199, 25.18262"
154225,16732,淡海,DanHai,81,,1,121.4203705,25.18497389,淡海路184巷旁(向北),"121.4203705, 25.18497389"
205602,17930,政大,National Chengchi U.,7,0,1,121.576536,24.987567,指南路二段117號(向西),"121.576536, 24.987567"
205603,17930,景美女中,Jingmei Girls High School,9,0,1,121.555554,24.980465,木新路三段320號同向(向西),"121.555554, 24.980465"
205544,18258,大慶蓮莊,Daqing Lianzhuang,1,,0,121.4004499,25.016513,桃縣龜山鄉萬壽路一段377號,"121.4004499, 25.016513"
154185,16732,捷運紅樹林站,MRT Hongshulin Sta.,38,,0,121.4591458,25.15383092,中正東路二段75號對面(向南),"121.4591458, 25.15383092"
154186,16732,八勢里,Bashi Village,39,,0,121.4592945,25.15052072,中正東路二段109號對面(向南),"121.4592945, 25.15052072"
154187,16732,竹圍國小,Zhuwei Elementary School,40,,0,121.4594429,25.14791718,中正東路二段163號對向(向南),"121.4594429, 25.14791718"
154188,16732,安老所,Nursing Home,41,,0,121.459452,25.145287,中正東路二段183號對面(向南),"121.459452, 25.145287"
154189,16732,馬偕醫院,Mackay Memorial Hospital,42,,0,121.459447,25.14067608,民權路27號對面(向南),"121.459447, 25.14067608"
154191,16732,許厝,Xucuo,44,,0,121.4588781,25.13301249,民權路88-2號(向南),"121.4588781, 25.13301249"
154192,16732,許厝,Xucuo,48,,1,121.4591607,25.13298025,民權路193號(向北),"121.4591607, 25.13298025"
154194,16732,馬偕醫院,Mackay Memorial Hospital,51,,1,121.4597852,25.1416553,民權路27號(向北),"121.4597852, 25.1416553"
154195,16732,安老所,Senior Home,52,,1,121.45973,25.14631,中正東路二段153號同向(向北),"121.45973, 25.14631"
154196,16732,竹圍國小,Zhuwei Elementary School,53,,1,121.4597473,25.14846958,中正東路二段131號同向(向北),"121.4597473, 25.14846958"
154197,16732,八勢里,Bashi Village,54,,1,121.45952,25.15123,中正東路二段107號(向北),"121.45952, 25.15123"
154198,16732,捷運紅樹林站,MRT Hongshulin Sta.,55,,1,121.4595096,25.15467673,淡水區中正東路二段67號北側(向北),"121.4595096, 25.15467673"
154199,16732,輕軌紅樹林站,Bashi 1st St.,56,-1,1,121.45941,25.15586,中正東路二段47號同向(向北),"121.45941, 25.15586"
154200,16732,竿蓁林,Ganzhenlin,57,,1,121.4580904,25.158465,新北市淡水區淡金路一段5巷口(向西),"121.4580904, 25.158465"
154201,16732,山海大地,ShanHaiDaDi,58,,1,121.457079,25.160094,新北市淡水區淡金路18號(向西),"121.457079, 25.160094"
154202,16732,輕軌竿蓁林站,LRT Ganzhenlin Sta.,59,-1,1,121.456403,25.161781,新北市淡水區淡金路67號對面(向北),"121.456403, 25.161781"
154203,16732,加油站,Gas Sta.,60,,1,121.458911,25.165567,新北市淡水區淡金路162號前(向北),"121.458911, 25.165567"
154204,16732,忠愛街口,Zhongai St. Entrance,61,,1,121.4598356,25.171547,淡水區淡金路忠愛街口對面(向北),"121.4598356, 25.171547"
154205,16732,輕軌淡江大學站,Tamkang University,62,-1,1,121.456598,25.176417,新北市淡水區淡金路189-6號對面(向北),"121.456598, 25.176417"
154206,16732,福德宮,Fude Temple,63,,1,121.451118,25.179849,新北市淡水區北新路177-2號(向南),"121.451118, 25.179849"
154207,16732,台電宿舍,T.P.C. Dormitory,64,,1,121.449309,25.178874,新北市淡水區北新路131號(向南),"121.449309, 25.178874"
20177,10116,龍口市場,Longkou Market,34,,0,121.511851,25.0293,和平西路二段55號同向(向西),"121.511851, 25.0293"
20178,10116,植物園,Taipei Botanical Garden,35,,0,121.508779,25.030898,和平西路二段102號對向(向西),"121.508779, 25.030898"
20179,10116,和平中華路口,Heping & Zhonghua Intersection,36,,0,121.50578,25.033191,和平西路二段135號同向(向西),"121.50578, 25.033191"
20180,10116,昆明街口,Kunming St. Intersection,37,,0,121.5020082,25.03534159,和平西路三段83號對向(向西),"121.5020082, 25.03534159"
20186,10116,漢口中華路口,Hankou & Zhonghua Intersection,43,,1,121.507984,25.045384,漢口街7號同向(向東),"121.507984, 25.045384"
20188,10116,小南門,Xiaonanmen,45,,1,121.5069037,25.03786879,中華路一段202號前候車亭(向南),"121.5069037, 25.03786879"
20189,10116,聯合醫院和平院區,TCUH Heping Branch,46,,1,121.5063886,25.03646318,中華路二段15號對向(向南),"121.5063886, 25.03646318"
20190,10116,植物園,Taipei Botanical Garden,48,,1,121.509834,25.030056,和平西路二段100號同向(向東),"121.509834, 25.030056"
20191,10116,龍口市場,Longkou Market,49,-1,1,121.511735,25.029143,和平西路二段68號(向東),"121.511735, 25.029143"
20194,10116,捷運頂溪站,MRT Dingxi Sta.,52,-1,1,121.515471,25.013998,永和路二段217號(向南),"121.515471, 25.013998"
20196,10116,正興里,Zhengxing Village,54,-1,1,121.515573,25.010002,中正路633號對面(向南),"121.515573, 25.010002"
20199,10116,永和國小,Yonghe Elementary School,57,-1,1,121.5172544,25.00304399,中正路472號對向(向南),"121.5172544, 25.00304399"
20200,10116,得和路口,Dehe Rd. Entrance,58,-1,1,121.517563,25.000946,中正路277號同向(向南),"121.517563, 25.000946"
20202,10116,中興二村,Zhongxing Village 2,60,-1,1,121.5152688,24.99706845,永和區中正路83號(向南),"121.5152688, 24.99706845"
20203,10116,智光商職,Chih-Kuang Senior Commercial & Industrial Vocational High School,61,-1,1,121.5125768,24.99403299,中正路64號(向南),"121.5125768, 24.99403299"
154230,16731,基隆市界(明德三路),Keelung City Line(Mingde 3rd Rd.),0,,0,121.685307,25.075597,基隆市七堵區明德三路115號對面(向西),"121.685307, 25.075597"
154231,16731,摩天鎮,Maotianzhen,1,,0,121.683273,25.074762,大同路三段611-5號同向(向南),"121.683273, 25.074762"
154232,16731,亞太科技園區,Asia Pacific Technology Park,2,-1,0,121.682809,25.072605,大同路三段575號(向南),"121.682809, 25.072605"
154233,16731,保長坑,Baochangkeng,3,,0,121.67919,25.07129,大同路三段324號同向(向西),"121.67919, 25.07129"
154234,16731,保安里,Baoan Village,4,,0,121.675147,25.073658,大同路三段333號(向西),"121.675147, 25.073658"
154235,16731,長安里,Jhangan Village,5,,0,121.67317,25.0763,大同路三段243-245號同向(向西),"121.67317, 25.0763"
154236,16731,崇義高中(五堵車站),Chongyi High School(Wudu Rail Sta.),6,,0,121.6676204,25.07733,大同路三段89號同向(向南),"121.6676204, 25.07733"
154237,16731,國泰醫院,Cathay General Hospital,7,,0,121.66475,25.07167,地標同向(向西),"121.66475, 25.07167"
154238,16731,汐止,Xizhi,8,,0,121.6616891,25.06917666,新北市汐止區大同路二段523號(向南),"121.6616891, 25.06917666"
154239,16731,汐止公園,Xizhi Park,9,,0,121.659997,25.067906,大同路二段459號(向西南),"121.659997, 25.067906"
154240,16731,江北橋頭,Jiangbei Bridge,10,,0,121.6559524,25.067698,新北市汐止區汐萬路一段20號,"121.6559524, 25.067698"
154241,16731,江北社區,Jiangbei Community,11,,0,121.65474,25.07009,汐止區汐萬路一段81號對面(向北),"121.65474, 25.07009"
27914,15224,復興崗,Fuxinggang 本路線實施行駛外側車道依序進站載客,41,,0,121.4923517,25.13807076,中央北路二段227號同向(向南),"121.4923517, 25.13807076"
154208,16732,正德國中,Zhengde Junior High School,65,,1,121.447544,25.178458,新北市淡水區北新路102號對面(向西),"121.447544, 25.178458"
154210,16732,米粉寮,Mifenliao,67,,1,121.4447595,25.180451,新北市淡水區中山北路一段255號對面(向北),"121.4447595, 25.180451"
154211,16732,摩天31,Motian 31,68,,1,121.4431515,25.181216,新北市淡水區新春路193號同向,"121.4431515, 25.181216"
154212,16732,加州社區,California community,70,,1,121.441427,25.181942,新北市淡水區新春街119號(向西),"121.441427, 25.181942"
154213,16732,東宇花園城,Dongyu Garden City,71,,1,121.4386875,25.182381,新北市淡水區新春街81號,"121.4386875, 25.182381"
154214,16732,新春街新民街口,Xinchun & Xinmin Intersection,73,,1,121.4359416,25.181196,新民街103號對面(向西),"121.4359416, 25.181196"
154215,16732,高爾夫山莊,Gaoerfu village,74,,1,121.4352268,25.183075,新北市淡水區新民街320號北側25公尺,"121.4352268, 25.183075"
154218,16732,輕軌台北海洋大學站,LRT Taipei University of Marine Technology Sta.,85,-1,1,121.426436,25.190968,淡水區濱海路三段150號旁後車亭(向東),"121.426436, 25.190968"
154219,16732,大庄,Dazhuang,84,,1,121.426215,25.190445,淡水區中正路二段301號對面(編號37837號電線桿旁)(向西),"121.426215, 25.190445"
20204,10116,景新街,Jingxin St.,62,,1,121.512387,24.989796,景新街390號同向(向東),"121.512387, 24.989796"
20205,10116,放生寺,Fangsheng Temple,64,,1,121.5120524,24.98523881,忠孝街131號同向(向南),"121.5120524, 24.98523881"
20206,10116,飛駝二村,Feituo 2nd. Village,65,,1,121.5111456,24.98361559,忠孝街3號(向南),"121.5111456, 24.98361559"
20211,10116,外南站,Wainan Stop,70,,1,121.5065568,24.99027862,南山路25號(向北),"121.5065568, 24.99027862"
20213,10116,捷運景安站(景平路),MRT Jingan Sta.(Jingping Rd.),72,-1,1,121.504583,24.993701,中和區景平路488號捷運景安站出入口前(向西),"121.504583, 24.993701"
20214,10116,南華路口,Yuantong&Jingping Rd. Entrance,73,,1,121.502089,24.995175,景平路568號同向(向西),"121.502089, 24.995175"
20216,10116,大同育幼院,Tatung Childrens‘Home,75,,1,121.4983901,24.995841,圓通路128號同向(向西),"121.4983901, 24.995841"
182924,16591,長江民生路口,Changjiang & Minsheng Intersection,98,,1,121.462731,25.030794,新北市板橋區長江路一段212號,"121.462731, 25.030794"
199236,16677,集會所,Meeting House,5,0,0,121.6509783,25.176601,萬里區二坪路1-1號對面(向北),"121.6509783, 25.176601"
27918,15224,中央南路,Zhongyang S. Rd. 本路線實施行駛外側車道依序進站載客,45,,0,121.5013177,25.13218314,中央南路一段46號(向南),"121.5013177, 25.13218314"
27919,15224,中央南大興街口,Zhongyang S. & Daxing St. Entrance,46,,0,121.501062,25.130163,中央南路一段126號同向(向南),"121.501062, 25.130163"
27921,15224,捷運奇岩站,MRT Qiyan Station 本路線實施行駛外側車道依序進站載客,48,,0,121.4995994,25.12600361,三合街二段502號同向(向西),"121.4995994, 25.12600361"
27922,15224,鳳甲美術館,Fengjia Arts Museum 本路線實施行駛外側車道依序進站載客,49,,0,121.498447,25.126464,大業路282號同向(向北),"121.498447, 25.126464"
27923,15224,大業路(大興街口),Daye Rd. 2 本路線實施行駛外側車道依序進站載客,50,-1,0,121.49742,25.12909,大業路368號同向(向北),"121.49742, 25.12909"
27925,15224,中央南路,Zhongyang S. Rd. 本路線實施行駛外側車道依序進站載客,52,,1,121.5014192,25.13224662,中央南路一段45號(向北),"121.5014192, 25.13224662"
27926,15224,北投國小,Beitou Elementary School 本路線實施行駛外側車道依序進站載客,53,,1,121.50136,25.13361526,中央北路一段2號同向(向北),"121.50136, 25.13361526"
27927,15224,大業中央北路口,Daye & Zhongyang N.Intersection,54,,1,121.4978915,25.13580742,中央北路一段175號同向(向西),"121.4978915, 25.13580742"
27930,15224,稻香圖書館,Daoxiang Library,57,,1,121.48966,25.14056,稻香路79號對向(向北),"121.48966, 25.14056"
27933,15224,鄧公里,Denggong Village,85,,1,121.4478578,25.169,學府路41號(向南),"121.4478578, 25.169"
133053,16531,紅柿仔腳,Hongshizijiao,12,-1,0,121.4715209,25.184416,北新路一段607號對面,"121.4715209, 25.184416"
133221,16532,富基漁港,New Shibawanggong,92,,1,121.531779,25.287977,崁子腳58-22號對面候車亭,"121.531779, 25.287977"
27934,15224,捷運淡水站,MRT Tamsui Sta.,86,,1,121.44588,25.16841,中正東路35號(向西),"121.44588, 25.16841"
27936,15224,北淡水,BeiTamsui,88,,1,121.44194,25.175635,淡水區中山北路一段50號同向(向北),"121.44194, 25.175635"
33925,10148,南樹林火車站,South Shulin Station,26,,0,121.4087873,24.979984,中山路二段121號,"121.4087873, 24.979984"
14417,10732,莊敬中學,Zhuangjing High School,68,,1,121.53358,24.98743,中正路546號對面(向南),"121.53358, 24.98743"
14419,10732,遠東工業城,Far East Industrial City,69,,1,121.5334506,24.98444031,中正路516號同向(向南),"121.5334506, 24.98444031"
14421,10732,花開富貴,Huakaifugui,70,,1,121.53367,24.98182,中正路485號同向(向南),"121.53367, 24.98182"
14423,10732,廿張路,Ershizhang Rd.,72,-1,1,121.534109,24.977862,中正路423號(向南),"121.534109, 24.977862"
14429,10732,崇光中學,Chongguang High School,75,,1,121.540277,24.972496,中正路201號前(向東),"121.540277, 24.972496"
14431,10732,中正路口,Zhongzheng Rd. Intersection,76,,1,121.5419,24.97122,中正路127號同向(向東),"121.5419, 24.97122"
14435,10732,北新國小,Qizhang(Baoqiao Rd.),78,-1,1,121.544312,24.974222,寶橋路11號對面(向東),"121.544312, 24.974222"
14437,10732,寶橋中興路口,Baoqiao and Zhongxing Intersection,79,,1,121.5468506,24.97584027,寶橋路84號同向(向東),"121.5468506, 24.97584027"
14439,10732,加油站,Gas Sta.,81,,1,121.548731,24.977046,寶橋路156號前(向東),"121.548731, 24.977046"
14441,10732,寶高產業園區,Baogao Science and Intellectual Park,82,,1,121.5512315,24.97862352,寶橋路222號前(向東),"121.5512315, 24.97862352"
14443,10732,景美女中,Jingmei Girls High School,83,,1,121.55568,24.980335,木新路三段320號對面(向東),"121.55568, 24.980335"
14445,10732,木新市場,Muxin Market,84,,1,121.5583622,24.98100977,木新路三段(向東),"121.5583622, 24.98100977"
14449,10732,國泰新村(木新),GuoTai New Village(Muxin),86,,1,121.561802,24.981856,木新路三段126號(向東),"121.561802, 24.981856"
14453,10732,木柵公園,Muzha Park,89,,1,121.56077,24.98702,台北市興隆路四段107巷口(向北),"121.56077, 24.98702"
14455,10732,馬明潭(再興中學),Mamingtan(Zaixing High School),90,,1,121.5599425,24.98936336,興隆路四段59號(向北),"121.5599425, 24.98936336"
14457,10732,興隆山莊,Xinglong Shanzhuang,91,,1,121.55919,24.990768,興隆路三段333號(向北),"121.55919, 24.990768"
14461,10732,海巡署,Coast Guard Administration,93,,1,121.5594086,24.99385696,興隆路三段223之5號同向(向北),"121.5594086, 24.99385696"
14463,10732,文山運動中心(興隆),Wenshan Sports Center,94,-1,1,121.5601,24.99640823,興隆路三段173號前(向北),"121.5601, 24.99640823"
14465,10732,臺灣警察專科學校,Taiwan Police College,95,,1,121.559454,24.99767733,興隆路三段206巷口對側以南(警察學校大門口南側)(向北),"121.559454, 24.99767733"
14467,10732,捷運萬芳醫院站,MRT Wanfang Hospital Sta.,96,,1,121.557829,24.999259,興隆路三段113號萬芳醫院大門右側(向西),"121.557829, 24.999259"
12707,10281,中興街口,Zhongxing St. Entrance,51,,1,121.468523,25.044972,重新路五段湯城旁候車亭(向南),"121.468523, 25.044972"
12711,10281,頭前,Touqian,53,,1,121.4636349,25.04106316,中正路48號之5同向(向南),"121.4636349, 25.04106316"
12713,10281,大眾廟,Dazhong Temple,55,,1,121.4573883,25.03714826,中正路80之145號同向(向南),"121.4573883, 25.03714826"
12717,10281,新泰路口,Xintai Rd. Intersection,57,,1,121.44814,25.035329,中正路244號同向(向西),"121.44814, 25.035329"
12725,10281,營盤口,Yingpankou,61,,1,121.43029,25.031456,中正路544號前(向南),"121.43029, 25.031456"
12731,10281,雙鳳富國路口,Shuangfeng & Fuguo Intersection,64,,1,121.417289,25.025761,中正路702號同向(向南),"121.417289, 25.025761"
12733,10281,丹鳳國小,Danfeng Elementary School,65,,1,121.415911,25.024242,新莊區中正路726-2號前(向南),"121.415911, 25.024242"
12737,10281,丹鳳高中,Danfeng High School,67,,1,121.41633,25.0212,龍安路72號同向(向南),"121.41633, 25.0212"
12739,10281,裕民國小,Yumin Elementary School,68,,1,121.41789,25.02065,龍安路96號同向(向東),"121.41789, 25.02065"
12741,10281,萬安公園,Wanan Park,69,,1,121.42012,25.0199,龍安路214號同向(向東),"121.42012, 25.0199"
12743,10281,龍安大第,Longan Dadi,70,,1,121.4222103,25.01929167,台北市建國北路同向(向東),"121.4222103, 25.01929167"
12745,10281,光華國小(龍安路),Guanghua Elementary School(Longan Rd.),71,-1,1,121.42593,25.017972,龍安路487巷同向(向東),"121.42593, 25.017972"
12749,10281,光明里,Guangming Village,73,,1,121.4258116,25.01439,民安西路224號同向(向南),"121.4258116, 25.01439"
12751,10281,新寶社區,Xinbao Community,74,,1,121.4260776,25.01268166,民安西路280號同向(向南),"121.4260776, 25.01268166"
12721,10281,盲人重建院,Institute for the Blind,59,,1,121.440623,25.03371663,中正路386號同向(向西),"121.440623, 25.03371663"
14075,10731,捷運萬芳醫院站,MRT Wanfang Hospital Sta.,9,,0,121.556845,24.999571,興隆路三段84-96號(向東),"121.556845, 24.999571"
14077,10731,臺灣警察專科學校,Taiwan Police College,10,,0,121.5584896,24.99834008,興隆路三段172號(向南),"121.5584896, 24.99834008"
14083,10731,興隆山莊,Xinglong Shanzhuang,14,,0,121.5586916,24.9913869,興隆路三段299號南側(向南),"121.5586916, 24.9913869"
14085,10731,馬明潭(再興中學),Mamingtan(Zaixing High School),15,,0,121.5597219,24.98937794,興隆路四段6之17號同向(向南),"121.5597219, 24.98937794"
14087,10731,木柵公園,Muzha Park,16,,0,121.56074,24.98693,興隆路四段50號(向南),"121.56074, 24.98693"
14089,10731,忠順街口,Zhongshun St. Entrance,17,,0,121.5614966,24.98477018,興隆路四段68之1號(向南),"121.5614966, 24.98477018"
14091,10731,國泰新村(木新),GuoTai New Village(Muxin),19,,0,121.5617584,24.98207278,木新路三段133號(向西),"121.5617584, 24.98207278"
12753,10281,光華街口,Guanghua St. Intersection,75,,1,121.428101,25.010583,民安西路372號同向(向東),"121.428101, 25.010583"
12755,10281,民安西路403巷口,Lane 403 Minan W. Rd. Intersection,76,,1,121.429871,25.009224,新莊區民安西路430號左側(向東),"121.429871, 25.009224"
12757,10281,大唐江山,Datang Jiangshan,77,,1,121.431591,25.007896,民安西路468弄2號同向(向東),"121.431591, 25.007896"
12763,10281,西盛館,Xishengguan,2,,0,121.432578,25.013078,新樹路274號同向(向南),"121.432578, 25.013078"
12765,10281,西盛,Xisheng,0,,0,121.433249,25.019241,新樹路226號同向(向南),"121.433249, 25.019241"
14093,10731,力行國小,Lixing Elementary School,20,,0,121.560283,24.98161162,木新路三段184號同向(向西),"121.560283, 24.98161162"
14095,10731,木新市場,Muxin Market,21,,0,121.5582725,24.98115347,木新路三段270號同向(向南),"121.5582725, 24.98115347"
14099,10731,寶高產業園區,Baogao Science and Intellectual Park,23,,0,121.550164,24.978108,寶橋路221號同向(向南),"121.550164, 24.978108"
14101,10731,加油站,Gas Station,24,,0,121.548575,24.9771,寶橋路(向西),"121.548575, 24.9771"
14109,10731,七張(北新路),Qizhang(Beixin Rd.),28,,0,121.5426501,24.97141,北新路二段15號(向南),"121.5426501, 24.97141"
14113,10731,崇光中學,Chongguang High School,30,,0,121.54022,24.972713,中正路222號同向(向西),"121.54022, 24.972713"
14115,10731,中正國宅,Zhongzheng Public Housing,31,,0,121.537621,24.974454,中正路298號同向(向西),"121.537621, 24.974454"
14117,10731,耕莘醫院(中正路),Cardinal Tien Hospital,32,-1,0,121.535279,24.97615,中正路362號同向(向西),"121.535279, 24.97615"
14119,10731,廿張路口,Ershizhang Rd. Entrance,34,,0,121.534014,24.979496,中正路468號同向(向北),"121.534014, 24.979496"
14121,10731,遠東工業城,Far East Industrial City,36,,0,121.533806,24.983471,新店市中正路516-1號(向北),"121.533806, 24.983471"
14123,10731,莊敬中學,Zhuangjing High School,37,,0,121.533644,24.98633,中正路546號(向北),"121.533644, 24.98633"
14125,10731,捷運秀朗橋站,MRT Xiulang Bridge Sta.,38,-1,0,121.524798,24.990551,景平路1號對向(向西),"121.524798, 24.990551"
14129,10731,景平路景德街口,Jingping Jingde Intersection,40,-1,0,121.5194886,24.99170762,景平路之2號同向(向西),"121.5194886, 24.99170762"
14149,10731,華泰新城,Huatai Xincheng,48,,0,121.509133,25.000374,中和路411號同向(向北),"121.509133, 25.000374"
14151,10731,捷運永安市場站,MRT Yungan Market Station,49,,0,121.51094,25.002402,中和路388號同向(向北),"121.51094, 25.002402"
14153,10731,保平路口,Baoping Rd. Intersection,50,,0,121.510771,25.005904,永貞路352號(向西),"121.510771, 25.005904"
12625,10281,家麒新天地,Jiaqixintiandi,3,,0,121.432644,25.010087,新樹路525號對面(向南),"121.432644, 25.010087"
12627,10281,正豐,Zhengfeng,4,,0,121.432786,25.007493,新樹路551巷對向(向南),"121.432786, 25.007493"
12629,10281,大唐江山,Datang Jiangshan,5,,0,121.431869,25.007867,民安西路468巷3號(向西),"121.431869, 25.007867"
12631,10281,民安西路403巷口,Lane 403 Minan W. Rd. Intersection,6,,0,121.4299139,25.009369,新莊區民安西路407號旁(向西),"121.4299139, 25.009369"
12633,10281,光華街口,Guanghua St. Intersection,7,,0,121.4284024,25.01056501,民安西路357號(向西),"121.4284024, 25.01056501"
56963,10511,中山藝術公園,Zhongshan Art Park,41,,0,121.4925214,25.06043253,重新路三段108號同向(向東),"121.4925214, 25.06043253"
185360,16462,介壽大同路口,Jieshou & Datong Intersection,10,,0,121.378308,24.93064,新北市三峽區介壽路一段197-199號,"121.378308, 24.93064"
113749,16270,新興公寓,XinXing Apartment,25,,0,121.4525547,25.10289023,成泰路三段591號(向北),"121.4525547, 25.10289023"
129185,16492,國際學舍,International House,39,,1,121.548542,24.963873,新坡一街102號對面(向南),"121.548542, 24.963873"
132943,16530,東元廠,Dapiantou,17,0,0,121.4515866,25.21526,淡水區興仁路18號,"121.4515866, 25.21526"
20176,10116,泉州街,Quanzhou St. Intersection,33,-1,0,121.51419,25.02801,和平西路二段7號同向(向西),"121.51419, 25.02801"
20219,10116,雙和醫院(圓通路),Shuang Ho Hospital,78,-1,1,121.494221,24.9917,新北市中和區圓通路醫院站公車彎內(向南),"121.494221, 24.9917"
45814,10753,風動石,Fengdongshi,19,-1,0,121.5792515,25.0011663,木柵路五段同向(向西),"121.5792515, 25.0011663"
203424,16552,九份派出所,Jioufen Police Station,44,0,1,121.8425581,25.109443,新北市瑞芳區汽車路2-24號(向南),"121.8425581, 25.109443"
134296,16552,鼻頭角,BitouJiao,9,0,0,121.916875,25.121407,新北市瑞芳區廉洞高幹190號電線桿旁候車亭,"121.916875, 25.121407"
203639,16628,宏普社區,Hongpu Community,22,0,0,121.42462,25.19679,新北市淡水區新市二路一段崁頂五路口(向西),"121.42462, 25.19679"
13869,10143,木柵高工,Muzha Vocational High School,40,-1,0,121.5722856,24.99607621,木柵路四段77號對面(向北),"121.5722856, 24.99607621"
45815,10753,深坑區公所,Shenkeng Township Office,32,-1,0,121.6148467,25.00242315,北深路二段156號對面,"121.6148467, 25.00242315"
45816,10753,深坑區公所,Shenkeng Township Office,107,-1,1,121.614578,25.002433,北深路二段176號西側,"121.614578, 25.002433"
38262,10753,東南科技大學,Tungnan U.,28,-1,0,121.604254,25.00231,北深路三段127號旁(向東),"121.604254, 25.00231"
14471,10732,懷恩隧道,Huaien Tunnel,99,,1,121.5526047,24.99796724,辛亥路五段102號同向(向南),"121.5526047, 24.99796724"
14473,10732,溝子口(幸福華興),Gouzikou(Xingfu huaxing),100,,1,121.5521689,24.9886685,木柵路一段(向南),"121.5521689, 24.9886685"
14475,10732,中港抽水站,Zhonggang Pumping Station,101,,1,121.55331,24.98616,辛亥路七段27號同向(向南),"121.55331, 24.98616"
203640,16628,宏盛水悅社區,Hungsheng Water Palace Community,23,0,0,121.42486,25.19899,崁頂五路298號前(向北),"121.42486, 25.19899"
203641,16628,宏盛水悅社區,Hungsheng Water Palace Community,67,0,1,121.424659,25.198917,崁頂五路298號對面(向南),"121.424659, 25.198917"
203642,16628,宏普社區,Hongpu Community,68,0,1,121.42449,25.19658,新北市淡水區新市二路一段崁頂五路口(向東),"121.42449, 25.19658"
141889,16628,新市二路四段,Xinshi 2nd Rd. Sec.4,75,,1,121.44213,25.192477,淡水區新市二路四段76號(向東),"121.44213, 25.192477"
14243,10731,中國科技大學(興隆),China University of Technology,99,,1,121.5557085,25.00050056,興隆路三段35號同向(向北),"121.5557085, 25.00050056"
14251,10731,實踐國中,Shijian Junior High School,104,,1,121.554207,24.98437446,辛亥路七段60號同向(向南),"121.554207, 24.98437446"
14253,10731,木新路口,Muxin Rd. Intersection,105,,1,121.55363,24.98199,辛亥路七段78號同向(向南),"121.55363, 24.98199"
14293,10732,全球工業總部,Global Industrial Headquarters,1,,0,121.551537,24.980281,新北市新店區寶橋路235巷11號(向南),"121.551537, 24.980281"
14295,10732,木新路口,Muxin Rd. Intersection,2,,0,121.55379,24.98184,辛亥路七段78之1號同向(向北),"121.55379, 24.98184"
14299,10732,中港抽水站,Zhonggang Pumping Station,4,,0,121.5533321,24.98656774,辛亥路七段12號同向(向北),"121.5533321, 24.98656774"
14301,10732,溝子口(幸福華興),Gouzikou(Xingfu huaxing),5,,0,121.5524331,24.98848123,木柵路一段(向北),"121.5524331, 24.98848123"
34013,10148,國慶街,Guoqing St.,88,,1,121.351057,24.953082,國慶街164號同向(向南),"121.351057, 24.953082"
13853,10143,力行國小,Lixing Elementary School,30,-1,0,121.5597839,24.98138027,木新路三段32段188號(向東),"121.5597839, 24.98138027"
13857,10143,忠順廟,Zhongshun Temple,32,-1,0,121.56469,24.982483,木新路三段29號(向東),"121.56469, 24.982483"
13859,10143,司法新村,Sifa New Village,33,-1,0,121.56636,24.98305,木新路二段257號(向東),"121.56636, 24.98305"
13861,10143,景文中學,Jingwen High School,34,-1,0,121.5685285,24.98378771,木新路二段173號(向東),"121.5685285, 24.98378771"
13863,10143,木南公園,Munan Park,35,-1,0,121.570622,24.98551,木新路二段77號同向(向北),"121.570622, 24.98551"
13865,10143,萬壽橋頭(木柵),Wanshou Bridge(Muzha),38,-1,0,121.5711429,24.99132675,木柵路4段上臨秀明路(向北),"121.5711429, 24.99132675"
13867,10143,萬芳路口,Wanfang Rd. Intersection,39,-1,0,121.5715334,24.99339522,木柵路四段23號同向(向北),"121.5715334, 24.99339522"
13941,10143,胡璉故居紀念館,Mansion of General Hu-Lien,80,-1,1,121.5262847,24.96306452,台北縣新店市安康路一段152號對向(向西),"121.5262847, 24.96306452"
13947,10143,安康派出所,Ankang Police Substation,84,,1,121.514015,24.963346,安康路二段82號同向(向南),"121.514015, 24.963346"
13949,10143,公崙新村(豐榮醫院),Gonglun New Village(Feng Rong Hospital),85,,1,121.512518,24.961978,安康路二段136號同向(向南),"121.512518, 24.961978"
13951,10143,浪漫貴族,Langmanguizu,86,,1,121.51084,24.95991,安康路二段196-1號同向(向南),"121.51084, 24.95991"
13953,10143,台北菸廠,Taipei Tobacco Factory,87,,1,121.5084746,24.95887022,安康路二段278號同向(向南),"121.5084746, 24.95887022"
13955,10143,安康車子路口,Chezi Rd.,88,,1,121.5048646,24.95808137,安康路二段269號同向(向南),"121.5048646, 24.95808137"
13957,10143,薏仁坑,Yirenkeng,89,,1,121.501307,24.957301,安康路二段362之1號同向(向南),"121.501307, 24.957301"
13959,10143,仁康醫院,Jen-Kang Hospital,90,-1,1,121.499692,24.956813,安康路二段317號對向(向南),"121.499692, 24.956813"
13961,10143,康樂新村,Kangle New Village,91,,1,121.4972383,24.95549,安康路二段400號同向(向南),"121.4972383, 24.95549"
208055,16590,大格門登山口,Dagemen Hiking Trail Entrance,100,0,1,121.664372,24.948877,北宜路六段29.8K(向南),"121.664372, 24.948877"
13919,10143,寶橋中興路口,Baoqiao and Zhongxing Intersection,69,,1,121.546778,24.975953,寶橋中興路口(向南),"121.546778, 24.975953"
13923,10143,指南路口,Zhinan Rd. Entrance,58,-1,1,121.570658,24.986197,木新路二段52號(向南),"121.570658, 24.986197"
13871,10143,捷運木柵站,MRT Muzha Station,41,-1,0,121.5743091,24.99783812,木柵路四段62號同向(向東),"121.5743091, 24.99783812"
13873,10143,博嘉國小,Bojia Elementary School,42,-1,0,121.575568,24.999501,木柵路四段153號對向(向東),"121.575568, 24.999501"
13875,10143,信義松仁路口(信義),Xinyi and Songren Rd. Intersection(Xinyi),44,,0,121.5666877,25.03294979,信義路五段15號(向西),"121.5666877, 25.03294979"
13877,10143,捷運台北101/世貿站(市府),MRT Taipei 101/World Trade Center Sta.(City Hall Rd.),45,,0,121.563576,25.03451287,市府路同向(向北),"121.563576, 25.03451287"
13879,10143,市政府(市府),Taipei City Hall(City Hall Rd.),46,,0,121.5636252,25.03836666,市府路1號(向北),"121.5636252, 25.03836666"
13883,10143,消防局(松仁),Fire Department(Songren),48,,1,121.568284,25.038604,松仁路32號前(向南),"121.568284, 25.038604"
13887,10143,信義松仁路口(松仁),Xinyi and Songren Rd. Intersection(Songren),50,,1,121.568236,25.03453525,松仁路150號莊敬路管制站巷口南側對面(向南),"121.568236, 25.03453525"
13891,10143,捷運木柵站,MRT Muzha,53,-1,1,121.57396,24.997735,木柵路四段123號同向(向西),"121.57396, 24.997735"
13893,10143,木柵高工,Muzha Vocational High School,54,-1,1,121.5725908,24.99650141,木柵路四段77號同向(向南),"121.5725908, 24.99650141"
13895,10143,萬芳路口,Wanfang Rd. Intersection,55,-1,1,121.5714446,24.99356532,木柵路四段23號同向(向南),"121.5714446, 24.99356532"
13897,10143,萬壽橋頭(木柵),Wanshou Bridge(Muzha),56,-1,1,121.570973,24.99130942,木柵路4段上臨秀明路對面(向南),"121.570973, 24.99130942"
13899,10143,木南公園,Munan Park,59,-1,1,121.57011,24.984828,木新路二段95號對面(向南),"121.57011, 24.984828"
13903,10143,司法新村,Sifa New Village,61,-1,1,121.56699,24.98335,木新路二段234號(向西),"121.56699, 24.98335"
13905,10143,忠順廟,Zhongshun Temple,62,-1,1,121.5645265,24.98265039,木新路三段36號同向(向西),"121.5645265, 24.98265039"
205545,18258,龍華科技大學,Lunghwa University of Science and Technology,2,,0,121.404559,25.017619,萬壽路一段258號,"121.404559, 25.017619"
13931,10143,碧潭橋頭,Bitan Bridge,75,,1,121.53963,24.963276,北新路一段143號(向南),"121.53963, 24.963276"
13933,10143,捷運新店站(新店路),MRT Xindian Station,76,-1,1,121.53755,24.958392, 北新路一段捷運站接駁月台(向南),"121.53755, 24.958392"
13935,10143,溪頭,Xitou,77,,1,121.5319036,24.96083175,安康路一段70號同向(向北),"121.5319036, 24.96083175"
13963,10143,大茅埔,Damaopu,92,,1,121.494847,24.954594,安康路二段385號對向(向南),"121.494847, 24.954594"
13965,10143,安祥路口,Anxiang Rd. Entrance,93,,1,121.491647,24.955756,安祥路安康路口(向西),"121.491647, 24.955756"
14067,10731,實踐國中,Shijian Junior High School,3,,0,121.55435,24.98456,辛亥路七段53號同向(向北),"121.55435, 24.98456"
14073,10731,懷恩隧道,Huaien Tunnel,7,,0,121.55339,24.99835,辛亥路五段65號同向(向北),"121.55339, 24.99835"
14171,10731,永和區公所(竹林路),Yonghe Dist. Office(Zhulin Rd. ),59,,1,121.5206462,25.00825972,竹林路208號(向南),"121.5206462, 25.00825972"
14173,10731,福和國中(永貞路),Fuhe Junior High School(Yongjhen Rd. ),61,,1,121.52046,25.005498,新北市永和區永貞路68號,"121.52046, 25.005498"
14175,10731,福和國中,Fuhe Junior High School,62,,1,121.5215535,25.0031338,永和永利路118號(向東),"121.5215535, 25.0031338"
14177,10731,永元路,Yongyuan Rd.,63,,1,121.522296,25.00158,永元路89號(向南),"121.522296, 25.00158"
14181,10731,六合社區,Liuhe Community,65,-1,1,121.525878,24.999065,得和路410號前(向東),"121.525878, 24.999065"
14183,10731,劉厝,Liucuo,66,,1,121.526478,24.996942,成功路二段150號(向南),"121.526478, 24.996942"
14185,10731,秀朗路三段70巷,Xiulang Rd. Sec. 3 Lane 70,67,-1,1,121.526309,24.994716,秀朗路三段68號(向南),"121.526309, 24.994716"
14189,10731,秀景里,Xiujing Village,69,,1,121.52587,24.991494,成功路84號同向(向南),"121.52587, 24.991494"
57941,15638,金龍里,Jinlong Villiage,31,,0,121.5963848,25.08456012,成功路四段220號(向西),"121.5963848, 25.08456012"
57942,15638,秀湖,Xiuhu,41,,1,121.5983,25.08459663,成功路4段307號(向東),"121.5983, 25.08459663"
14201,10731,中正國宅,Zhongzheng Public Housing,76,,1,121.537963,24.974051,中正路265號同向(向東),"121.537963, 24.974051"
14207,10731,七張(北新路),Qizhang(Beixin Rd.),79,-1,1,121.542921,24.971513,北新路二段26號同向(向北),"121.542921, 24.971513"
14309,10732,海巡署,Coast Guard Administration,12,,0,121.5594777,24.99480432,興隆路三段296號同向(向南),"121.5594777, 24.99480432"
14311,10732,海巡署一,Coast Guard Administration 1,13,,0,121.558778,24.993046,興隆路三段302之4號同向(向南),"121.558778, 24.993046"
14335,10732,北新公寓,Beixin Apartment,26,,0,121.54475,24.97479,寶橋路49號同向(向西),"121.54475, 24.97479"
14341,10732,中正路口,Zhongzheng Rd. Intersection,29,,0,121.541397,24.971908,中正路160號同向(向西),"121.541397, 24.971908"
14413,10732,景平路景德街口,Jingping Jingde Intersection,66,,1,121.519446,24.991327,景平路116號同向(向東),"121.519446, 24.991327"
14415,10732,捷運秀朗橋站,MRT Xiulang Bridge Sta.,67,-1,1,121.524836,24.990204,景平路3號(向東),"121.524836, 24.990204"
14387,10732,永貞社區,Zhongshan Rd. Intersection,56,-1,0,121.507356,25.009328,新北市永和區永貞社區(向東),"121.507356, 25.009328"
14389,10732,保平路口,Baoping Rd. Intersection,57,,0,121.510644,25.005904,新北市永貞路303號(向東),"121.510644, 25.005904"
14391,10732,捷運永安市場站,MRT Yungan Market Station,58,,0,121.510832,25.002521,中和路513號同向(向南),"121.510832, 25.002521"
14393,10732,華泰新城,Huatai Xincheng,59,,0,121.509035,25.000533,中和路310號(向南),"121.509035, 25.000533"
14405,10732,中和教會,Zhonghe Church,63,,1,121.509186,24.992776,景平路243號同向(向東),"121.509186, 24.992776"
182936,17548,安華路口,Anhua Rd. Intersection,51,0,1,121.5213653,24.96370503,安康路一段323號之3號(向東),"121.5213653, 24.96370503"
187030,17700,南園,Nanyuan,4,-1,0,121.385364,24.948118,樹林區佳園路三段203號,"121.385364, 24.948118"
187031,17700,景觀萬坪公園(公厝仔),Landscape Wanping Park(Gongcuozi),5,,0,121.386061,24.949747,新北市樹林區佳園路3段139號(向北),"121.386061, 24.949747"
187032,17700,十八間,Shibajian,6,,0,121.387879,24.953168,樹林區佳園路三段55號(向北),"121.387879, 24.953168"
187033,17700,柑園,Ganyuan,7,,0,121.389064,24.955979,新北市樹林區柑園街一段355號(向東),"121.389064, 24.955979"
187034,17700,柑園國小,Ganyuan Elementary School,8,,0,121.391823,24.956347,樹林區柑園街一段323號,"121.391823, 24.956347"
187035,17700,民權街口,Minquan St. Entrance,9,,0,121.3954417,24.95651,樹林區柑園街一段190號對面,"121.3954417, 24.95651"
187036,17700,柑園街,Ganyuan St.,10,,0,121.39893,24.956761,樹林區柑園街一段183號(向北),"121.39893, 24.956761"
187037,17700,東園里,Dongyuan Village,11,,0,121.400475,24.95845,樹林區柑園街一段151號(向北),"121.400475, 24.95845"
187038,17700,柑園分隊,Ganyuan Precinct,12,,0,121.4023,24.960227,樹林區柑園街一段67-1號(向東),"121.4023, 24.960227"
187039,17700,紅瓦厝,Hungwacuo,13,,0,121.404567,24.960388,樹林區柑園街一段23-2號(向北),"121.404567, 24.960388"
150936,16282,重建街口,JhongJian St. Entrance,30,,1,121.439321,25.17277822,文化路2號(向西),"121.439321, 25.17277822"
150937,16282,淡水新城,Tamsui Xincheng,31,,1,121.4390297,25.17433,新生街72號,"121.4390297, 25.17433"
150938,16282,海景園中園,Haijing Yuanzhongyuan,32,,1,121.439329,25.175529,淡水區新民街21號對面,"121.439329, 25.175529"
150939,16282,農會新興分部,Farmers Association Xinxing Branch,33,-1,1,121.4385393,25.176495,新北市淡水區農會新興分部(向西),"121.4385393, 25.176495"
150940,16282,淡江中學,Tamkang High School,34,,1,121.438052,25.177405,新民街114號,"121.438052, 25.177405"
150941,16282,真理大學,Aletheia University,35,,1,121.436927,25.178764,新民街164號旁(向西),"121.436927, 25.178764"
150942,16282,新興福德宮,Xinxing Fude Temple,36,-1,1,121.43621,25.180373,淡水區新民街220號(向北),"121.43621, 25.180373"
150944,16282,台北灣社區,Taibeiwan Community,39,,1,121.432072,25.185312,新北市淡水區新民街一段1號對面(向西),"121.432072, 25.185312"
150945,16282,行忠宮,Xingzhong Temple,40,,1,121.4302211,25.18571,新北市淡水區新民街一段80號,"121.4302211, 25.18571"
150946,16282,大庄福德廟,Dazhuang Fude Temple,41,,1,121.4274905,25.188922,新北市淡水區新民街一段155號對面,"121.4274905, 25.188922"
150949,16282,沙崙濱海路口,Shalun & Binhai Intersection,45,,1,121.431125,25.191255,沙崙路編號431690號電桿旁(向北),"121.431125, 25.191255"
150950,16282,新市二路二段,Xinshi 2nd Rd. Sec. 2,46,,1,121.431275,25.194337,淡水區新市二路三段沙崙路口西側30公尺對面(向西),"121.431275, 25.194337"
150951,16282,太子廟,Taizi Temple,50,,1,121.4284871,25.199831,淡水區後洲路一段177號對面,"121.4284871, 25.199831"
150962,16682,電信大樓,Telecommunication Repair Center,148,0,1,121.7251728,25.122571,安樂路二段104號,"121.7251728, 25.122571"
150963,16682,安樂區行政大樓,Administration Center,149,0,1,121.7233784,25.12093,安樂路二段153號對面,"121.7233784, 25.12093"
12661,10281,營盤口,Yingpankou,21,,0,121.431382,25.031553,中正路524號對向(向北),"121.431382, 25.031553"
12663,10281,捷運輔大站,MRT Fu Jen University Station,22,,0,121.435466,25.032612,捷運B出入口(向東),"121.435466, 25.032612"
12665,10281,盲人重建院,Institute for the Blind,23,,0,121.442607,25.033904,中正路455-2號同向(向東),"121.442607, 25.033904"
12667,10281,海山里,Haishan Village,24,,0,121.44483,25.034382,中正路415號(向東),"121.44483, 25.034382"
12669,10281,新泰路口,Xintai Rd. Intersection,25,,0,121.447739,25.034987,新北市新莊區中正路325號(向東),"121.447739, 25.034987"
12671,10281,捷運新莊站(新莊郵局),MRT Xinzhuang Sta.(Xinzhuang Post Office),26,,0,121.449469,25.035376,中正路265號(向東),"121.449469, 25.035376"
12673,10281,新莊國小,Xinzhuang Elementary School,27,,0,121.456562,25.036727,中正路上近登龍街路口同向(向東),"121.456562, 25.036727"
12681,10281,中興街口,Zhongxing St. Entrance,32,,0,121.469408,25.045403,重新路五段592號同向(向北),"121.469408, 25.045403"
12685,10281,重新大橋,Chongxin Bridge,35,,0,121.4876744,25.05142477,成功路106號同向(向東),"121.4876744, 25.05142477"
12689,10281,祖師廟(貴陽),Zushi Temple(Guiyang),36,,0,121.5024902,25.03997288,貴陽街128號(向東),"121.5024902, 25.03997288"
12691,10281,貴陽街,Guiyang St.,37,,0,121.5058238,25.03944953,貴陽街2段26號(向東),"121.5058238, 25.03944953"
12697,10281,衡陽路,Hengyang Rd.,45,,1,121.51021,25.04227,衡陽路91號(兆豐商銀前)(向西),"121.51021, 25.04227"
12699,10281,西門市場(成都),Ximen Market(Chengdu),46,,1,121.5066536,25.04268954,成都路35-1號前(向西),"121.5066536, 25.04268954"
12701,10281,西門國小,Ximen Elementary School,47,,1,121.5040034,25.04329907,成都路119號(向西),"121.5040034, 25.04329907"
12637,10281,光明里,Guangming Village,9,,0,121.4260504,25.01453194,民安西路217號(向北),"121.4260504, 25.01453194"
12639,10281,光華國小(民安西路),Guanghua Elementary School (Minan W. Rd.),10,,0,121.426301,25.016748,民安西路147號(向北),"121.426301, 25.016748"
12643,10281,龍安大第,Longan Dadi,12,,0,121.4221636,25.01933187,龍安路331號同向(向西),"121.4221636, 25.01933187"
12645,10281,萬安公園,Wanan Park,13,,0,121.4200836,25.01999805,龍安路214號(向北),"121.4200836, 25.01999805"
13937,10143,大坪頂,Dapingding,78,,1,121.5298939,24.96132951,安康路1段75號(向北),"121.5298939, 24.96132951"
12647,10281,裕民國小,Yumin Elementary School,14,,0,121.41789,25.02076,龍安路96號(向西),"121.41789, 25.02076"
12649,10281,丹鳳高中,Danfeng High School,15,,0,121.416282,25.02129417,龍安路72號(向北),"121.416282, 25.02129417"
12659,10281,三洋,Sanyo,20,,0,121.42685,25.03016,中正路669號(向東),"121.42685, 25.03016"
20146,10116,中和站,Zhonghe Stop,0,,0,121.4909948,24.98982846,錦和路402號同向(向東),"121.4909948, 24.98982846"
20147,10116,圓通路305巷,Yuantong Rd. Lane 305,1,,0,121.493285,24.990811,圓通路309-9號(向東),"121.493285, 24.990811"
20148,10116,力行里,Lixing Li,3,,0,121.495666,24.993046,圓通路273號同向(向北),"121.495666, 24.993046"
20149,10116,力行社區,Lixing Community,4,,0,121.496766,24.994297,圓通路207號同向(向東),"121.496766, 24.994297"
20150,10116,大同育幼院,Tatung Childrens‘ Home,5,,0,121.49861,24.9957,圓通路128號同向(向北),"121.49861, 24.9957"
20151,10116,圓通景平路口,Yuantong Rd. Intersection,6,-1,0,121.50001,24.99699,圓通路84號對向(向北),"121.50001, 24.99699"
20152,10116,南華路口,Nanhua Rd. Intersection,7,,0,121.501412,24.995486,景平路429號同向(向南),"121.501412, 24.995486"
20153,10116,捷運景安站,MRT Jingan Sta.,8,-1,0,121.504723,24.992843,新北市中和區景安路164號(向南),"121.504723, 24.992843"
20154,10116,南山捷運路,Nanshan Jieyun Rd.,9,,0,121.5048144,24.99146296,南山路311號對向(向南),"121.5048144, 24.99146296"
20156,10116,中和國中,Zhonghe Junior High School,12,,0,121.50758,24.98578,興南路二段22號(向西),"121.50758, 24.98578"
