name,star,comment,class,address,latitude,longitude
果滋味綜合飲料店,4.9,17,冰品飲料店,新北市三峽區大德路39號1樓,24.9429943,121.3770984
可不可熟成紅茶-三峽北大店,3.9,191,冰品飲料店,新北市三峽區學成路229號,24.9425087,121.374965
茶聚CHAGE三峽和平店｜香片領導品牌＿新北手搖飲料店外帶外送加盟推薦│在地美食飲料茶飲創業加盟,4.7,354,冰品飲料店,新北市三峽區和平街107號,24.9382843,121.3703329
50嵐 三峽北大店,4.3,101,冰品飲料店,新北市三峽區大學路129號1樓,24.9436023,121.3745389
五桐號WooTEA 三峽北大店,3.7,62,冰品飲料店,新北市三峽區國學街39號,24.942509,121.3726773
CoCo都可 三峽北大店,4.1,192,冰品飲料店,新北市三峽區大學路143號,24.9437545,121.3741646
紅茶洋行-三峽復興店,4.5,28,冰品飲料店,新北市三峽區復興路36-8號,24.9367654,121.373994
珍煮丹 三峽北大店,3.9,221,冰品飲料店,新北市三峽區大學路145號,24.9439864,121.3741868
CoCo都可 三峽和平店,4,232,冰品飲料店,新北市三峽區和平街40號,24.9373577,121.37032
老賴茶棧三峽老街店,4.3,95,冰品飲料店,新北市三峽區民權街5號,24.9345784,121.3704512
無飲國學店,4.2,41,冰品飲料店,新北市三峽區國學街28號,24.9421522,121.3731927
清心福全三峽大學店（來電外送26731238免外送費）,4.8,144,冰品飲料店,新北市三峽區國際一街36號,24.9426896,121.3734502
來壺果飲,4.6,87,冰品飲料店,新北市三峽區大德路153號,24.9451932,121.37561
清心福全三峽文化店-珍珠奶茶手搖飲料專賣店,3.6,58,冰品飲料店,新北市三峽區文化路16號,24.9358682,121.3733162
泡泡龍,3.9,102,冰品飲料店,新北市三峽區民生街171號,24.934743,121.3723595
胖茶 茶飲專賣店 /三峽飲料推薦/三峽特色飲料/三峽必喝/鮮萃黑茶/黑奶茶/仙草凍拿鐵,4.4,43,冰品飲料店,新北市三峽區光明路94號,24.928534,121.3756757
鮮茶道(三峽文化店),3.6,141,冰品飲料店,新北市三峽區文化路41號,24.9360559,121.3724651
拾?茶屋 三峽中華店,4.9,239,冰品飲料店,新北市三峽區中華路37號,24.9311286,121.3728445
清水冬瓜王 三峽店,4.4,567,冰品飲料店,新北市三峽區長福街15號,24.9338713,121.3705682
有料搖搖茶yoyocha-新北三峽店,4.4,27,珍珠奶茶,新北市三峽區大同路45號1樓,24.9277724,121.3760445
奶霸Milk Bar-鍋煮奶茶創始店 三峽飲料 三峽飲料推薦 三峽手搖飲 三峽咖啡 三峽下午茶,5,24,冰品飲料店,新北市三峽區光明路96號,24.9282042,121.3757325
咕茶,4.9,121,冰品飲料店,新北市三峽區光明路100之1號,24.9281741,121.3760056
清心福全三峽大義店,3.5,107,珍珠奶茶,新北市三峽區大義路11號,24.9437014,121.3788895
太元茶室 Est.2021,4.7,119,冰品飲料店,新北市三峽區國學街8號,24.9415506,121.3736498
三峽冰鎮,4,218,冰品飲料店,新北市三峽區民生街108號,24.93532,121.373318
統一茗茶-顏選製茶所(YANXUAN)|碧螺春綠茶|蜜香紅茶|白茶冠軍|東方美人|烏龍茶|金萱|四季春|老茶|茶糖|牛軋糖|雪花餅|茶酥|茶梅|苦茶油|三峽伴手禮|茶葉禮盒|批發零售|,4.9,43,茶葉店,新北市三峽區竹崙路23號,24.922695,121.4292553
Mai cha嘜ㄔㄚ、飲品專賣店,5,159,冰品飲料店,新北市三峽區介壽路一段6號黃昏市場鍾予原味旁,24.9334478,121.3745244
好了啦紅茶冰-三峽大同,3,1,冰品飲料店,新北市三峽區大同路69號,24.9272751,121.375194
50嵐 三峽光明店,4.8,116,冰品飲料店,新北市三峽區光明路100-3號,24.9281327,121.3760502
COMEBUY_三峽光明店,4.2,52,冰品飲料店,新北市三峽區光明路17號,24.9313579,121.37325
自己來 紅茶鮮乳 三峽愛國店,3.6,19,冰品飲料店,新北市三峽區愛國路32-10號,24.932998,121.3748773
樹林青草茶,4.7,12,冰品飲料店,新北市三峽區民族街,24.9316832,121.3686455
森木坊古早冰,4.7,169,冰品飲料店,新北市三峽區秀川街88號,24.9334467,121.370201
得正#三峽文化計劃,5,7,冰品飲料店,新北市三峽區文化路60號,24.9362408,121.3724963
市民小站三峽愛國店,4.3,41,冰品飲料店,新北市三峽區愛國路32-8號,24.9330274,121.3745909
可不可熟成紅茶-三峽文化店,4,39,冰品飲料店,新北市三峽區文化路5號,24.9355342,121.3732848
涼水庫愛國店,5,1,冰品飲料店,新北市三峽區愛國路2號,24.933996,121.3741324
好了啦-三峽愛國店,5,1,冰品飲料店,新北市三峽區愛國路24號對面號,24.9333949,121.3742639
50嵐 三峽文化店,3.9,491,冰品飲料店,新北市三峽區文化路26號,24.9360019,121.3732319
愛茶咖 i - Cha Ca Coffee & Tea,4.9,7,冰品飲料店,新北市三峽區民權街117號,24.932275,121.369141
龜記茗品-三峽文化店,4.5,146,冰品飲料店,新北市三峽區文化路7號,24.9354679,121.373238
好了啦-紅茶冰,4,5,冰品飲料店,新北市三峽區正義街61號號,24.918473,121.3692115
好了啦！三峽和平店,3,2,冰品飲料店,新北市三峽區和平街60號,24.9378497,121.3704018
三峽青草茶,0,0,冰品飲料店,新北市三峽區民生街178號門口附近,24.935002,121.37129
上宇林三峽和平店,4.5,82,冰品飲料店,新北市三峽區和平街24之3號,24.9362858,121.3703514
陳Q古早黑砂糖剉冰 三峽光明店,3.9,61,冰品飲料店,"No. 29-1號, 光明路三峽區新北市237",24.9310724,121.3734778
現帶茶,4.7,10,冰品飲料店,新北市三峽區和平街73號,24.9371852,121.3701056
大苑子,3.5,221,冰品飲料店,新北市三峽區和平街101號,24.9381192,121.3702556
一枝冰商行,4.7,7,冰品飲料店,新北市三峽區嘉添路181-24號號1樓,24.9108246,121.3710066
吉品仙草小棧,4.5,127,冰品飲料店,新北市三峽區中山路129號,24.9360427,121.3652347
好了啦三峽國光店,0,0,冰品飲料店,新北市三峽區國光街34號,24.9376488,121.3750729
三峽 古早味黑砂糖剉冰,3.1,7,冰品飲料店,新北市三峽區中山路4號1樓,24.9344364,121.3698974
期香茶棧三峽店,4,25,無酒精飲料店,新北市三峽區民生街193號,24.9347746,121.3718143
7吋Qi Inch 甜品屋/冰棒/芝麻糊 三峽本店,4.7,14,冰品飲料店,新北市三峽區中華路74-1號,24.9293109,121.3714508
迷客夏Milksha 新北三峽北大店,3.6,321,冰品飲料店,新北市三峽區國際二街33號1樓,24.9432073,121.3726224
雙予綿綿冰（原峽客冰品),4.3,15,冰品飲料店,新北市三峽區中山路141號,24.9361434,121.365088
芋見豆花,4.7,132,冰品飲料店,新北市三峽區文化路246號,24.9359211,121.367499
呷冰站(台灣鮮果手工冰),4.4,216,冰品飲料店,新北市三峽區國際一街82號1 樓,24.9415729,121.3712196
Bella甜品專賣北大店,4.6,47,冰品飲料店,新北市三峽區國際一街27號,24.9424157,121.3737864
安安冰?室,4.9,40,冰品飲料店,新北市三峽區文化路193號,24.935601,121.3667312
三峽老街冰店,4.4,91,冰品飲料店,新北市三峽區民權街10號,24.9346258,121.3702061
ㄚ冰師古早香紅茶冰,3.7,25,飲品分銷商,新北市三峽區大勇路80號,24.9360841,121.3670906
唐香蘭涼麵｜真果粉圓｜蔬食手捲,4.8,58,冰品飲料店,新北市三峽區大同路56號,24.9286129,121.376951
茗食茶,4.4,23,冰品飲料店,新北市三峽區大觀路313號,24.9475348,121.3730902
伊希詩ISIS冷飲,4.4,13,冰品飲料店,新北市三峽區大學路109-1號,24.9420845,121.3756495
古道阿彬杏仁茶,3.5,113,飲料,新北市三峽區民權街40號,24.9336735,121.369658
魔法香腸 Magic Sausage,5,916,冰品飲料店,新北市三峽區民權街97號,24.9326914,121.3692766
金聯春老房子,4,1,冰品飲料店,新北市三峽區民權街5 3號,24.9334179,121.369771
YCHY拾味(三峽義大利麵、三峽咖啡廳、三峽午餐、三峽晚餐、三峽下午茶、三峽人氣餐廳、三峽平價美食）,4.5,736,冰品飲料店,新北市三峽區國際一街27-1號1樓,24.9424002,121.3737362
禾乃川國產豆製所,4.4,1,冰品飲料店,新北市民權街84巷12-1號*最後點餐時間17:30,24.9337739,121.3689688
啡茶小棧,0,0,冰品飲料店,新北市三峽區白雞路153-1號白雞商圈,24.9049821,121.4008095
蟾蜍山谷冷飲店,5,52,冰品飲料店,新北市三峽區,24.8564912,121.4357632
嚐冰閣,0,0,冰品飲料店,新北市三峽區介壽路三段146號,24.9432035,121.4012029
我家苦茶 草本養生茶舖,4.9,17,冰品飲料店,新北市三峽區白雞路1號153 之 號,24.9048573,121.4005201
穩贏生技股份有限公司(北區營業處),0,0,飲品分銷商,新北市三峽區添福路151之7號,24.8989055,121.3753074
日月閒境,4.7,12,冰品飲料店,桃園市大溪區信義路956號,24.8949062,121.3195782
葵可利—飲料店(早餐廣東粥),4.4,13,冰品飲料店,桃園市大溪區民權東路78號,24.8822025,121.2914058
隱茶於市,4.5,19,冰品飲料店,新北市鶯歌區國中街120號,24.9401638,121.3395606
茶聚CHAGE三峽和平店｜香片領導品牌＿新北手搖飲料店外帶外送加盟推薦│在地美食飲料茶飲創業加盟,4.7,354,珍珠奶茶,新北市三峽區和平街107號,24.9382843,121.3703329
TEA'S 原味-八德介壽店,3.4,108,冰品飲料店,桃園市八德區介壽路一段770號,24.9633852,121.3000639
三峽冰鎮-北大店,4,264,冰品飲料店,新北市三峽區大德路485號,24.947807,121.37419
CoCo都可 三峽大雅店,4.3,219,冰品飲料店,新北市樹林區大雅路280號,24.9472177,121.3798771
Tea's 原味（鶯歌南雅店）,3.2,56,冰品飲料店,新北市鶯歌區南雅路35號,24.954198,121.3490025
易家紅茶冰,3.6,8,冰品飲料店,新北市三峽區中園街26號,24.9268903,121.3681208
火金姑茶,4.4,43,茶葉店,新北市三峽區安坑里11鄰 51-6號,24.9315231,121.463942
涎露茗茶,0,0,茶葉店,新北市三峽區,24.9177366,121.4628214
甘霖冰室,0,0,冰品飲料店,新北市三峽區成福路261號,24.9235991,121.427911
三峽日盛製茶 七代傳承,4.5,39,茶葉店,新北市三峽區成福路308-1號,24.9234616,121.4289819
老家Black Tea (Old Place),4.7,46,無酒精飲料店,新北市三峽區中山路37號,24.9344206,121.3682438
好了啦-三峽祖師廟店,3,4,果汁,新北市三峽區長福街2號正對面,24.933576,121.370231
雲萃茶作,3.9,30,茶葉店,新北市三峽區民權街69號,24.9329941,121.369691
有福製茶廠/新北製茶廠/新北茶葉/新北茶葉批發/新北茶農,4.6,43,茶葉店,新北市三峽區竹崙路87-1號,24.9188232,121.4324518
山泉水 清茶館,3,1,無酒精飲料店,新北市三峽區清水街334號,24.9338546,121.3712325
幸福搖搖-西門1號店,4.4,323,冰品飲料店,台北市萬華區成都路54號1樓,25.042642,121.5060244
蟾蜍山谷烤肉區,4,561,冰品飲料店,新北市三峽區130之1號,24.8566359,121.4355647
愛沐芋芋頭芋圓仙草凍專賣店-三峽特色冰店|必吃芋圓|人氣飲料|熱門飲料|推薦手搖|仙草凍推薦,3.9,29,無酒精飲料店,新北市三峽區和平街103號,24.938113,121.370173
茶裡不然-大坪林店,4.6,64,冰品飲料店,新北市新店區北新路三段159號,24.9837749,121.5410231
里木Limonetea 手作茶飲,5,138,冰品飲料店,桃園市大溪區埔頂路一段300之2號,24.9014712,121.2741911
五寮尖山休息站,4.5,132,冰品飲料店,新北市三峽區圳頭82號,24.87914,121.370536
日日杯茶飲,4.9,168,冰品飲料店,新北市中和區景平路574號,24.9955362,121.5016896
李記紅茶冰 文山木新店,4.2,30,冰品飲料店,台北市文山區木新路三段181號,24.981511,121.5603632
兔子茶飲,4.3,13,冰品飲料店,新北市中和區景平路73號,24.9916396,121.5182343
蒔三SHI SAN TEA - 新北中和店,4.7,45,冰品飲料店,新北市中和區圓通路162之5號,24.9951589,121.4974281
吳家紅茶冰台北木新店,4.3,48,冰品飲料店,台北市文山區木新路三段306號,24.9809322,121.5573103
谷雨茶水舖,4.8,86,冰品飲料店,新北市中和區建一路103號,25.0015424,121.488223
馬祖奶茶（文山木新店）,4.5,48,冰品飲料店,台北市文山區木新路三段33號,24.9824552,121.5645275
茶聚CHAGE文山木新店,4.3,58,冰品飲料店,台北市文山區木新路二段262號,24.9831829,121.5660561
五桐號WooTea 新北南勢角店,4,319,冰品飲料店,新北市中和區興南路一段94號,24.9891449,121.509785
COMEBUY_中和大勇店,3.6,184,冰品飲料店,新北市中和區大勇街27巷2號,24.9936789,121.5172163
大苑子台北木新店,4.1,248,冰品飲料店,台北市文山區木新路三段141號,24.9817883,121.5616159
木昂手作-樹林鎮前店,4.9,37,冰品飲料店,新北市樹林區鎮前街146號,24.9903955,121.4245155
予無憂飲品工作室 中和立人店,4.7,118,冰品飲料店,新北市中和區立人街21號,24.993971,121.521274
清心福全三峽文化店-珍珠奶茶手搖飲料專賣店,3.6,58,無酒精飲料店,新北市三峽區文化路16號,24.9358682,121.3733162
清心福全三峽中華店-珍珠奶茶手搖飲料專賣店,3.7,73,珍珠奶茶,新北市三峽區中華路21號1樓,24.9317207,121.3733697
正統茗茶製茶廠,4.7,12,茶葉店,新北市三峽區竹崙路97號,24.916712,121.433076
昱德茗茶,0,0,茶葉店,新北市三峽區竹崙路66號,24.9192167,121.4320743
海山綠葉茶園,0,0,茶葉店,新北市三峽區,24.9256438,121.4267134
金門仔飲料專賣店,4.4,118,冰品飲料店,新北市三重區大智街236號,25.0725835,121.4895396
雲森茶業,0,0,茶葉店, 728 999,23.4857501,120.0843006
來壺果飲,4.6,87,果汁,新北市三峽區大德路153號,24.9451932,121.37561
李記紅茶冰-北大龍瑩店,5,7,冰品飲料店,新北市樹林區佳園路三段132-1號,24.9499518,121.3857262
麻古茶坊三峽北大店,3.5,172,珍珠奶茶,新北市三峽區國際一街30號,24.9427912,121.3736611
茶米屋86,5,5,冰品飲料店,新北市三芝區長勤街86號,25.2550708,121.5001433
三芝農夫市集 璽揚揚手做吐司、蛋黃酥、香草茶,5,66,冰品飲料店,新北市三芝區,25.2464414,121.5080817
CoCo都可 三芝店,4.4,464,冰品飲料店,新北市三芝區中正路一段53號,25.2580262,121.5033625
葵可麗,5,4,冰品飲料店,新北市三芝區中正路一段73號,25.2570618,121.5040849
清心福全三芝店-珍珠奶茶手搖飲料專賣店,3.7,101,冰品飲料店,新北市三芝區淡金路二段14號,25.2595481,121.5024722
三芝快可立,4.4,24,珍珠奶茶,新北市三芝區淡金路二段2號,25.2592512,121.5022722
休閒小站新鮮茶飲專賣,4.6,43,飲料,新北市三芝區中正路一段16號,25.2589791,121.5029035
茗恩茶莊,4.5,15,茶葉店,新北市三芝區公正街三段4號,25.2568123,121.4989681
御品香茗茶,0,0,茶葉店,新北市三芝區中山路一段110號,25.2562489,121.5024908
珞樂樂,4.8,49,冰品飲料店,新北市三芝區埔坪里埔頭坑88之7號,25.2547291,121.5068226
好了啦紅茶冰-三芝智成店,4.5,6,冰品飲料店,新北市三芝區智成街26號,25.2566695,121.5038944
三芝製茶所-小粟手作,4.4,27,茶葉店,新北市三芝區105號~1 店面在淡金路2段19巷1號,25.2613699,121.4791021
三分春色 台北小巨蛋店,4.9,335,冰品飲料店,台北市松山區南京東路四段2號1樓,25.0509865,121.5503562
奶茶站飲料坊,4.5,159,冰品飲料店,台北市大同區重慶北路三段335巷42號,25.074464,121.515217
思相枝傳統豆花,3.7,82,冰品飲料店,新北市三芝區中正路一段101號,25.2560096,121.5047828
小粟茶室,0,0,茶葉店,新北市三芝區北勢子20號,25.2534722,121.4727693
福德茶坊,4.7,21,冰品飲料店,新北市淡水區中正路61號,25.1694876,121.4415834
Milu義調柴飲品店/早午餐,4.7,41,冰品飲料店,新北市泰山區楓江路40-2號,25.0623809,121.434859
原品手作飲料舖,1.6,10,冰品飲料店,新北市三重區龍濱路20巷6號,25.0676487,121.5027276
淡水舊鎮50年代枝仔冰,4.2,403,冰品飲料店,新北市淡水區淡金路二段270-1號,25.1885242,121.4471664
料杯杯BOBOLIAO微風北車店,4.1,262,冰品飲料店,台北市中正區北平西路3號2樓,25.0473866,121.5167338
芋見幸福大甲芋頭牛奶(三重福德店),4.9,26,冰品飲料店,新北市三重區信義街82號,25.0653305,121.5017357
蓋斯茶中和永安站,5,175,冰品飲料店,新北市中和區中安街18號,25.0031781,121.5133512
DrinkStore水雲朵台北復興店,4.7,163,冰品飲料店,台北市中山區復興北路154-1號,25.0530117,121.5437952
泰桑哩SonnyChaThai樂華店（每週二公休）,4.2,241,冰品飲料店,新北市永和區永平路181號,25.0092694,121.5101503
七盞茶 三重三民店,4.8,79,冰品飲料店,新北市三重區三民街110號1號,25.0633568,121.4850948
CoCo都可 三民店,4.2,148,冰品飲料店,新北市三重區三民街89號,25.063173,121.4855933
黑波堂 三重中華店,4.6,51,冰品飲料店,新北市三重區中華路117號,25.0635935,121.4836767
日月手作茶,5,3,冰品飲料店,新北市三重區忠孝路三段40巷50號,25.065847,121.483096
麻古茶坊三重中華店,4,215,冰品飲料店,新北市三重區中華路97號,25.0631662,121.4836687
紅茶洋行-三重國隆2店,5,94,冰品飲料店,新北市三重區三民街319號,25.069004,121.4776437
好了啦紅茶冰三重中華店,3.5,4,冰品飲料店,新北市三重區中華路104號,25.0634266,121.4833296
My嘟蘭手工綠豆沙牛乳 三重三民店,4.7,7,冰品飲料店,新北市三重區三民街287號,25.0685591,121.4788743
李記紅茶冰三重中正北店,4.4,22,冰品飲料店,新北市三重區中正北路244號,25.0679614,121.4816155
小茶齋-三重店,4.1,198,冰品飲料店,新北市三重區自強路一段216號,25.0665673,121.4941791
COMEBUY_三重中華店,4,138,冰品飲料店,新北市三重區中華路110號,25.063557,121.483311
豆佳香?濃豆乳 (豆花),4.9,432,冰品飲料店,新北市三重區新北大道一段82號,25.0616747,121.4862335
皇爵-三重商工店,4.1,133,冰品飲料店,新北市三重區忠孝路二段150號,25.0681408,121.4825321
果拾鮮果茶,4.5,117,冰品飲料店,新北市三重區重新路四段10-1號,25.0579308,121.4890127
鮮茶道(三重自強店),4,86,冰品飲料店,新北市三重區自強路一段274號,25.0678294,121.4920615
賞茶,4,34,冰品飲料店,新北市三重區忠孝路三段26號,25.0670471,121.4815522
李記紅茶冰-三重集美店（原中正南店）,5,22,冰品飲料店,新北市三重區集美街126巷5號,25.053445,121.4893736
Baroness小黑糖 雲端,4.2,515,冰品飲料店,新北市三重區新北大道ㄧ段57巷1樓號,25.0607358,121.4858278
CoCo都可 三重自強店,4.1,136,冰品飲料店,新北市三重區自強路一段250號,25.067316,121.492584
我想做愛 玉,4.5,183,冰品飲料店,新北市三重區重安街57號,25.0563132,121.4918638
"萬金紅茶冰 (01/15 - 02/21寒假休息中, 02/22開始營業, 有任何更新請關注FB粉絲專頁)",3.8,643,冰品飲料店,新北市三重區中正南路75號,25.0589761,121.494105
交心茶,4.4,86,冰品飲料店,新北市三重區集美街184號,25.0534977,121.490538
喫點冰 / 三重冰店 / 三重豆花 / 芒果冰 / 燒仙草,4.6,71,冰品飲料店,新北市三重區洛陽街23號1樓,25.0632801,121.4827173
茶詠春-三重自強店,4,36,冰品飲料店,新北市三重區自強路一段194號,25.0662299,121.494732
TEATOP第一味 三重大智店,4.4,76,冰品飲料店,新北市三重區大智街61號,25.0679526,121.4926354
MOK米歐克三重店,4.8,132,冰品飲料店,新北市三重區中正南路2號1樓,25.0607328,121.4934458
千千杯甜品（黑糖刨冰｜雪花冰｜甜湯｜傳統豆花）,4.8,128,冰品飲料店,新北市三重區重陽路一段101號,25.0595389,121.4869944
毒水製茶｜珍珠奶茶｜手搖飲料專賣店,5,45,冰品飲料店,新北市三重區環河南路221巷27號,25.052812,121.4913685
武林茶三重集美店,4.2,52,冰品飲料店,新北市三重區集美街161號,25.053387,121.4908528
CoCo都可 集美店,3.8,258,冰品飲料店,新北市三重區集美街208號,25.054221,121.491145
50嵐 中正北店,3.9,433,冰品飲料店,新北市三重區中正北路157號,25.0676882,121.482372
喫茶趣ToGo(三重店),0,0,冰品飲料店,新北市三重區重新路二段15之2號,25.062551,121.4984016
茶聚CHAGE三重信義店｜香片領導品牌,4.8,130,冰品飲料店,新北市三重區信義西街50號,25.064559,121.498104
Good Drink讚豆綠豆冰沙三重大智店,4.8,15,冰品飲料店,新北市三重區大仁街62號,25.0650737,121.4922754
花好月圓 茶飲專賣-三重自強店,4.9,222,冰品飲料店,新北市三重區自強路一段95號,25.0664186,121.4959195
滿上-仙草愛玉茶飲專賣店-正義北店,4.4,118,冰品飲料店,新北市三重區正義北路231號1樓,25.0690676,121.4960269
好了啦紅茶冰-三重車路頭,4.9,15,冰品飲料店,新北市三重區車路頭街50號,25.0721624,121.4838146
鶴玥茶坊,4.8,35,冰品飲料店,新北市三重區中正北路256號,25.0681206,121.4813597
麻古茶坊三重正義店,4,192,冰品飲料店,新北市三重區正義北路61號,25.064415,121.497399
得正#三重正義計劃 Oolong Tea Project,3.9,220,冰品飲料店,新北市三重區正義北路46號,25.0636445,121.4972927
都渴以 三重店,4.6,48,冰品飲料店,新北市三重區文化北路226巷49號,25.0691258,121.4964408
茶詠春-創始店（三重中正北店）,4.7,365,冰品飲料店,新北市三重區中正北路189-1號,25.0696736,121.4773844
金茶伍手作飲品-三重車路頭門市 woo cha tea shop,4.9,422,冰品飲料店,新北市三重區車路頭街99號,25.0745059,121.4846201
清心福全三重重陽店-珍珠奶茶手搖飲料專賣店,3.3,134,冰品飲料店,新北市三重區重陽路一段71號,25.058788,121.486902
進發家-三重三和店,3.7,125,冰品飲料店,新北市三重區三和路三段32號,25.070546,121.4962337
清心福全三重自強店-珍珠奶茶手搖飲料專賣店,3.8,90,冰品飲料店,新北市三重區自強路一段314號,25.0684778,121.4910977
貞茶社,5,31,冰品飲料店,新北市三重區信義街50號隔壁,25.0652024,121.5009461
紅茶洋行-三重國隆店,4.7,76,冰品飲料店,新北市三重區國隆路16號,25.0639905,121.4929275
62茶亭（三重店）,4.9,159,冰品飲料店,新北市三重區文化北路244號,25.0697731,121.4973473
COMEBUY_三重大同店,3.6,158,冰品飲料店,新北市三重區大同北路42號,25.0628124,121.4951365
零下21°C 綿綿冰,4.4,925,冰品飲料店,新北市三重區重新路四段106號,25.0567129,121.4873572
50嵐 重新店,3.8,204,冰品飲料店,新北市三重區重新路三段5號,25.0616888,121.4953704
黑丸嫩仙草 三重重新店,4.7,12,冰品飲料店,新北市三重區重新路四段244巷50號,25.0538551,121.4882003
好了啦紅茶冰三重大仁店,2.9,14,冰品飲料店,新北市三重區大仁街58號,25.0650128,121.4921911
山頂潑 Mountain Pour,4.9,843,冰品飲料店,新北市三重區捷運路19巷4弄2號,25.05642,121.4850958
微堂well done 三重店,4.9,165,冰品飲料店,新北市三重區車路頭街176號,25.077,121.4836897
米茶meetea(三和店),4.3,66,冰品飲料店,新北市三重區三和路二段95號,25.0685116,121.4995745
三和古早味鮮奶茶?MilkTea,5,70,冰品飲料店,新北市三重區中央北路74號三和夜市,25.0663508,121.5002456
桃鳳湯,3.8,6,冰品飲料店,新北市三重區三陽路11-1號,25.0588877,121.4860931
源陞紅茶,4.7,67,冰品飲料店,新北市三重區車路頭街116號,25.075129,121.4841499
CoCo都可 三重中正北店,4.2,206,冰品飲料店,新北市三重區中正北路362號,25.0694624,121.4771702
COMEBUY_三重自強,4,28,冰品飲料店,新北市三重區自強路三段17號,25.0722645,121.4870682
水月手工冰棒,4.7,143,冰品飲料店,新北市三重區力行路一段179巷8-2號,25.0700447,121.4848481
龜記茗品 正義北店,4.2,206,冰品飲料店,新北市三重區正義北路12號,25.0628279,121.4975392
李記紅茶冰-三重文化北店,4.2,38,冰品飲料店,新北市三重區文化北路33-7號,25.0646671,121.4992314
冬瓜幫,4.5,53,冰品飲料店,新北市三重區公園街17號,25.0729409,121.4991904
紅茶洋行-三重三和店,3.8,13,冰品飲料店,新北市三重區三和路四段7號,25.0741898,121.4914861
天一青草茶,4.5,110,冰品飲料店,新北市三重區自強路一段29號,25.0678291,121.4981957
COMEBUY力行店,3.6,146,冰品飲料店,新北市三重區車路頭街167號,25.0775085,121.4837213
虎您嘎飲 回甘茶品手搖飲 現炸手?饅頭 手炒黑糖,4.6,32,冰品飲料店,新北市中寮街31號中段右側 1樓,25.0588751,121.49254
紅茶洋行 三重永福店,4.8,20,冰品飲料店,新北市三重區永福街175-1號,25.0754942,121.4787742
一手私藏世界紅茶 三重三和店,4.2,153,冰品飲料店,新北市三重區三和路二段16-1號,25.067202,121.500655
清心福全三重大同北店-珍珠奶茶手搖飲料專賣店,3.5,64,冰品飲料店,新北市三重區大同北路53號,25.0632336,121.495293
米家冰品,4.3,192,冰品飲料店,新北市三重區正義北路278－1號,25.0690833,121.4956628
清心福全三重集美店-珍珠奶茶手搖飲料專賣店,3.8,89,珍珠奶茶,新北市三重區集美街136號,25.0532024,121.489421
清水糖,4.3,322,冰品飲料店,新北市三重區文化北路31之1號,25.0640766,121.4994638
泡泡茶冷熱飲雞排專賣店,4.6,23,冰品飲料店,新北市三重區介壽路39巷78號,25.0704251,121.5004625
林心堂青草茶,0,0,冰品飲料店,新北市三重區大仁街35號1樓,25.0653046,121.492922
清心福全三重力行店-珍珠奶茶手搖飲料專賣店,4.1,93,冰品飲料店,新北市三重區力行路二段119號,25.0764585,121.4829458
50嵐 正義店,3.7,243,冰品飲料店,新北市三重區正義北路251號,25.0696346,121.4958072
順星站,4.5,19,冰品飲料店,新北市三重區三和路四段20巷124號,25.0730151,121.4881036
50嵐三重文化店,3.5,177,冰品飲料店,新北市三重區文化北路61-3號,25.0664063,121.4986898
可可亞.楊桃汁,4.7,18,冰品飲料店,新北市三重區正義北路2巷,25.0624858,121.4977638
老賴茶棧新北三重店,4,94,冰品飲料店,沒有地址,25.082865,121.4922853
"馥御私房手作茶,牛奶,羊奶,奶蓋專賣,黑糖珍珠奶茶、鮮奶茶專賣店,手搖飲,OATLY燕麥奶,焦糖布蕾奶蓋,預約外送,開放加盟中",4.9,1,冰品飲料店,新北市三重區中央北路26號,25.0642994,121.5005795
101飲料專賣店,3,14,冰品飲料店,新北市三重區自強路五段,25.080065,121.4918066
趙平米苔目黑糖剉冰,4.4,93,冰品飲料店,新北市三重區大同北路184巷12號,25.0654137,121.4914903
杯杯樂【綠豆沙】專賣店,4.8,81,冰品飲料店,新北市三重區文化北路22-2號,25.0642503,121.4992035
迷客夏Milksha 新北三和店,3.3,332,冰品飲料店,新北市三重區三和路三段18號,25.070236,121.4967069
鮮茶道（三重福隆店）,4.1,74,冰品飲料店,新北市三重區福隆路36號1樓,25.0784022,121.4921607
得正#三重徐匯計劃,3.5,189,冰品飲料店,新北市三重區三和路四段209號,25.0795948,121.4817669
五桐號WooTea 新北三重文化北店,3,227,冰品飲料店,新北市三重區文化北路20號,25.0641062,121.4991621
白巷子三重三和店,3.2,149,冰品飲料店,新北市三重區三和路四段229號,25.0798545,121.4812848
零度甜 冰品/豆花/甜湯,4.1,279,冰品飲料店,新北市三重區仁愛街20號,25.0711965,121.4965687
康青龍 三重台北橋店,3.1,95,冰品飲料店,新北市三重區重新路一段106號,25.0632105,121.5009429
喉饑果汁-現打果汁專賣店,4.3,3,冰品飲料店,新北市三重區重陽路三段5巷13號,25.065237,121.491052
KING KONG金剛咖啡茶飲,4.6,125,冰品飲料店,新北市三重區大同南路160號,25.0576245,121.4965488
COMEBUY_三重文化店,3.6,67,冰品飲料店,新北市三重區文化北路156號,25.0673587,121.4981492
康青龍 三重車路頭店,3.5,130,冰品飲料店,新北市三重區車路頭街163號,25.0773578,121.4837151
巷覓豆花,4.9,133,冰品飲料店,新北市三重區萬壽街59號,25.0695873,121.5006769
哪次布喝,3.8,49,珍珠奶茶,新北市三重區仁愛街347號,25.0796846,121.4921647
黑堂甜品專賣店,4.5,234,冰品飲料店,新北市三重區正義南路39號,25.0609112,121.4979651
上宇林三重文化北店,4.5,93,冰品飲料店,新北市三重區文化北路14號1樓,25.0637939,121.499278
糖玄宗黑糖鮮飲 & 瘋碳烤-三重文化北店,3.8,99,冰品飲料店,新北市三重區文化北路20號,25.0641062,121.4991621
清源專業青草工廠直營店,4.4,16,冰品飲料店,新北市三重區國隆路6號,25.0636135,121.4934504
COMEBUY_三重長壽店,4,38,冰品飲料店,新北市三重區長壽街23號-2號,25.0678201,121.4995351
鶴茶樓- 鶴頂紅茶商店(三重重新店),3.8,306,珍珠奶茶,新北市三重區重新路一段127號,25.0632476,121.5001266
迷客夏Milksha 新北三重店,3.9,344,冰品飲料店,新北市三重區五華街138號,25.083821,121.491446
三和古早味黑糖剉冰 （無固定公休日 ）,4.9,661,冰品飲料店,新北市三重區中央北路46號,25.064886,121.500649
龍門西瓜汁｜果汁、飲料、冰沙｜20年老店｜三重飲料推薦,4.6,130,冰品飲料店,新北市三重區龍門路132號1 樓,25.0730362,121.4981652
幸福多芋點,4.2,5,無酒精飲料店,新北市三重區三民街309號,25.0690527,121.4781321
七盞茶 三重五華店,4.8,280,冰品飲料店,新北市三重區五華街91號,25.0835402,121.4919316
漿樣子濃?豆乳-三重力行店,4.5,84,冰品飲料店,新北市三重區力行路二段71-1號,25.0751818,121.4824535
五桐號ＷooTea新北三重五華店,4.2,22,冰品飲料店,新北市三重區五華街144號,25.0839265,121.4913188
清心福全三重三和店-珍珠奶茶手搖飲料專賣店,4,190,珍珠奶茶,新北市三重區三和路四段197號,25.0793421,121.4822075
一沐日-三重三和店,3.8,71,冰品飲料店,新北市三重區三和路二段81號,25.068257,121.499969
日春木瓜牛奶-龍門店-三重木瓜牛奶|水果飲品|果汁飲品|現打果汁|平價果汁|新鮮果汁,4.4,57,冰品飲料店,新北市三重區龍門路166號1樓,25.0733067,121.4988741
茶詠春-三重光復店,4.7,301,冰品飲料店,新北市三重區光復路一段68巷58號,25.0491698,121.4697967
啜茶,4.1,27,冰品飲料店,新北市三重區光復路一段68巷30號1樓,25.0491721,121.4707568
粉紅泡泡飲品甜點專賣店,4.8,151,冰品飲料店,新北市三重區重新路五段568號,25.0456759,121.4699456
讚豆綠豆冰沙-三重光復店（目前只接外送）,5,10,冰品飲料店,新北市三重區光復路一段68巷29號,25.0493978,121.4700545
光復古早味黑砂糖剉冰,3.9,29,冰品飲料店,新北市三重區光復路一段68巷32號,25.049158,121.4707285
好了啦-三重重新店,0,0,冰品飲料店,新北市三重區重新路四段244巷50號,25.0537797,121.4881897
茶境 Gala 極匠一店,0,0,冰品飲料店,新北市三重區疏洪十六路1號,25.0506287,121.4822696
玖荳茶飲&甜點,5,7,冰品飲料店,新北市三重區成功路106-3號,25.0514987,121.4872907
小冰箱冷飲,5,2,冰品飲料店,新北市三重區重新路四段61號1樓,25.0573558,121.4875087
清心福全三重中興店-珍珠奶茶手搖飲料專賣店,4,114,無酒精飲料店,新北市三重區中正北路413號,25.0723767,121.4709021
鮮萃 現泡茶專門店／（熱飲）薑母茶 桂圓紅棗茶／仙草鮮奶凍,4.3,12,冰品飲料店,新北市三重區電信街128-1號,25.0580259,121.4945833
李記紅茶冰-三重永福店,3.8,36,冰品飲料店,新北市三重區永福街217號,25.0744116,121.4800798
美白羊肉爐,0,0,冰品飲料店,新北市三重區捷運路39號,25.0560733,121.4842068
茶詠春-三重溪尾店,4.2,28,冰品飲料店,新北市三重區溪尾街236號,25.0817986,121.4876681
交心茶 Justea,4.8,21,冰淇淋設備供應商,m.facebook.com,25.051969,121.4937175
Drink Store 化成店,3.7,107,冰品飲料店,新北市新莊區化成路316號,25.0484341,121.4658032
三重成功豆花,4.3,62,冰品飲料店,新北市三重區成功路145巷49號1樓,25.0536246,121.4879346
可不可熟成紅茶 新莊化成店,4.1,124,冰品飲料店,新北市新莊區化成路205-1號,25.0510146,121.4657457
紅茶洋行-力行店,4.6,10,冰品飲料店,新北市三重區力行路二段139號,25.0771876,121.4835316
老賴茶棧新北三重店,4,94,冰品飲料店,新北市三重區五華街110之1號,25.082865,121.4922853
善圓冰品店,0,0,冰品飲料店,新北市新莊區化成路192號,25.0460656,121.4658691
好了啦超大杯 重光店,5,7,冰品飲料店,新北市三重區重光街124-1號,25.0649932,121.4661216
乩仔兵中正北店,0,0,冰品飲料店,新北市三重區中正北路542號,25.0719231,121.4713597
"萬金紅茶冰 (01/15 - 02/21寒假休息中, 02/22開始營業, 有任何更新請關注FB粉絲專頁)",3.8,643,冰品飲料店,新北市三重區力行路一段179巷8-2號,25.0589761,121.494105
茶與布朗 Tea&Brown 三重店,4.6,98,無酒精飲料店,新北市三重區中華路69號,25.0624317,121.4837586
春雨制茶「三重店」-三重必喝飲品|人氣飲料|推薦手搖|冬季飲品|飲料店推薦|珍珠奶茶推薦,4.7,195,珍珠奶茶,新北市三重區自強路一段153號,25.0670269,121.4937611
都渴以-乳製飲品專賣（三重店）,5,3,冰品飲料店,新北市三重區三民街295號,25.0687227,121.4784528
仙古茶道（仁美店）,3.1,68,冰品飲料店,新北市三重區仁美街87號,25.0798588,121.4860897
哈米?綠豆沙、茶飲、果汁 (三和夜市商圈宵夜必喝),4.7,35,冰品飲料店,新北市三重區自強路一段8號隔壁木頭攤車（不要買錯囉,25.068313,121.498924
沒有名字的泰奶店,4.9,58,冰品飲料店,新北市三重區中央北路125號,25.0679744,121.4999321
涼水庫溪尾店,2.8,9,冰品飲料店,新北市三重區溪尾街200號,25.0810362,121.4882338
天仁茗茶 三重店,4.2,194,珍珠奶茶,新北市三重區重新路二段15之2號,25.0625404,121.498376
歡喜紅茶冰-黑糖粉圓專賣店,4.8,66,冰品飲料店,新北市三重區長榮路25-3號,25.0685859,121.5008229
我想做愛 玉,4.5,183,冰品飲料店,沒有地址,25.0563132,121.4918638
康青龍 三重中興店,5,1,冰品飲料店,新北市三重區中興北街207號,25.057897,121.46912
清心福全三重光復店-珍珠奶茶手搖飲料專賣店,3.9,41,無酒精飲料店,新北市三重區光復路一段68巷42號1樓,25.0491563,121.4703554
日 堯 君 泰式茶品,5,26,冰品飲料店,新北市三重區三張街149巷28號,25.0703758,121.4859717
茶主席,4.4,27,冰品飲料店,新北市三重區重新路五段555號,25.0461449,121.470505
茶·清流 頂級純味茶職人,0,0,冰品飲料店,新北市三重區光復路一段1號,25.0468807,121.4723278
清心福全三重光明店-珍珠奶茶手搖飲專賣店,4,145,珍珠奶茶,新北市三重區光明路67-1號,25.0574059,121.4916414
微笑檸檬脆皮香草香雞排（三重成功店）,4.4,103,冰品飲料店,新北市三重區成功路103號,25.0517094,121.4880664
三重 正土味傳統手工豆花,4,281,冰品飲料店,新北市三重區環河南路221巷25號,25.0527927,121.4914059
好好x好好茶飲,3.7,157,冰品飲料店,新北市三重區文化北路45號1樓,25.0655333,121.498951
Louisa Coffee 路易．莎咖啡(三重成功店),3.8,356,冰品飲料店,新北市三重區成功路98號,25.0511785,121.4878629
天狗神社 高大鮮奶茶/扭蛋機抽獎,4.9,579,冰品飲料店,新北市三重區中央北路,25.0645635,121.5008648
三和夜市 桔室-金桔檸檬,4.5,40,冰品飲料店,新北市三重區中央北路91號,25.0669589,121.5002509
ZEN IN﹒好食,5,232,冰品飲料店,新北市三重區中央北路26號_中央市場2店,25.0642962,121.5005763
綠豆沙牛奶-沙很大！專賣店,5,1,冰品飲料店,新北市三重區中央北路26號,25.0644238,121.5007327
品定雪花冰,4.1,70,冰品飲料店,新北市三重區中央北路67號特67-1號1樓,25.0660272,121.5005376
湘亭軒,4.5,17,冰品飲料店,新北市三重區文化南路55號1樓,25.0610509,121.4999993
七盞茶 三重自強店,4.5,297,冰品飲料店,新北市三重區自強路一段8號,25.068313,121.498924
米軍紅茶,4.9,18,冰品飲料店,新北市三重區中正南177號1樓,25.0553511,121.4935397
三重區光明路開心冰店,5,23,冰品飲料店,新北市三重區光明路100號,25.0565089,121.4924886
玄黑糖鮮奶波霸,1,3,冰品飲料店,新北市三重區中正南路146號,25.0574652,121.4944702
桃味茶三重三陽店,4.3,6,冰品飲料店,新北市三重區三陽路18號,25.058565,121.4857861
熊果園,4.5,72,冰品飲料店,新北市三重區溪尾街253號,25.0816906,121.4879931
茶研茶 蘆洲總店,4.8,261,冰品飲料店,新北市蘆洲區中山一路74巷1號,25.0811883,121.478811
魚池新語-三重仁愛店,4.4,65,冰品飲料店,新北市三重區仁愛街513號,25.0822799,121.4877505
清心福全溪尾店-珍珠奶茶手搖飲料專賣店,3,109,冰品飲料店,新北市三重區溪尾街243號,25.0814781,121.4881421
可不可熟成紅茶-三重五華店,4.1,78,冰品飲料店,新北市三重區五華街108之2號,25.0827269,121.4924719
好了啦紅茶冰(三重長安店),5,1,冰品飲料店,新北市三重區長安街67-1號,25.0672704,121.5011636
田園綠豆湯,4.5,82,冰品飲料店,新北市三重區大榮街53號,25.0634991,121.49927
豆花,4.3,18,冰品飲料店,新北市三重區正義南路59號1樓,25.0604504,121.4981655
同樂冰店,0,0,冰品飲料店,新北市三重區大同南路198號,25.0568573,121.4969237
福茶（三和夜市）,5,41,冰品飲料店,新北市三重區中央北路75-1號三和夜市,25.0664122,121.5004159
先喝道三重三和店,4.2,140,無酒精飲料店,新北市三重區三和路三段43號,25.0714041,121.4955786
50嵐 同安店,4.1,369,冰品飲料店,台北市中正區同安街32號,25.0243088,121.5217755
茶聚CHAGE台北長安店,4.3,469,冰品飲料店,台北市大同區長安西路129號,25.051396,121.5152907
陳Q黑砂糖剉冰,3.9,866,冰品飲料店,新北市三重區自強路一段226號,25.0667573,121.4937732
貳室USroom?dessert,4.5,417,冰品飲料店,新北市三重區文化南路14號,25.0619246,121.5002204
迪茶 迪化店,3.3,446,冰品飲料店,台北市大同區迪化街一段10號,25.0540762,121.5100722
古早味杏仁露,3.1,183,冰品飲料店,台北市大同區迪化街一段21號,25.0552408,121.5103053
馬祖奶茶 西門店,5,694,冰品飲料店,台北市萬華區漢口街二段54-34號,25.0459047,121.5057869
滿上-仙草愛玉茶飲專賣店-正義北店,4.4,118,冰品飲料店,沒有地址,25.0690676,121.4960269
新鮮果汁,0,0,冰品飲料店,新北市三重區中央北路2號號 No,25.063594,121.5011374
COMEBUY_三重仁美,3.7,21,冰品飲料店,新北市三重區仁美街83號,25.079616,121.4861338
又飽又涼 傳統米苔目剉冰,4.4,252,冰品飲料店,新北市三重區溪尾街128-1號,25.0794407,121.4892477
大台北茶行,4.2,11,茶葉店,新北市三重區三和路四段360號,25.0784003,121.483256
50嵐 三和店,4,459,冰品飲料店,新北市三重區三和路四段205號,25.0794716,121.4819867
北投紅茶-蘆洲得勝店,3.8,119,冰品飲料店,新北市蘆洲區得勝街76號1樓,25.0835908,121.4724585
台灣芒果冰專賣店,4.2,345,冰品飲料店,新北市三重區溪尾街279號,25.0824576,121.4874306
四季米苔目冰/現煮甜湯,4.7,39,冰品飲料店,新北市三重區溪尾街240號正豐臭豆腐旁,25.0818693,121.4876164
果汁樂園/現打新鮮果汁,4.9,12,果汁,新北市三重區力行路二段202號,25.0777901,121.4835035
黑 密 碼 (五股四維店),5,28,冰品飲料店,新北市五股區四維路127號,25.0739364,121.4674409
清原芋圓 三重溪尾店,4.2,308,冰品飲料店,新北市三重區溪尾街221號,25.0810945,121.4884142
COYTEA（新北蘆洲店）- 嗑以茶,4.5,119,冰品飲料店,新北市蘆洲區中山一路56號,25.0810959,121.479209
兜喜茶 DooTea,4.9,66,冰品飲料店,新北市蘆洲區中正路28號,25.0822876,121.4713471
涼杯杯 古早味香蕉清冰專賣店,3.7,26,冰品飲料店,新北市蘆洲區中山二路101號,25.0816314,121.4726355
DrinkStore水雲朵蘆洲中正店,4.1,93,冰品飲料店,新北市蘆洲區中正路103號1樓,25.0841003,121.4697417
杜芳子古味茶鋪 蘆洲中正店,4.2,191,冰品飲料店,新北市蘆洲區中正路52號,25.0828522,121.4708795
拾?茶屋 蘆洲中山店,4.7,31,冰品飲料店,新北市蘆洲區中山二路121號1F,25.0815934,121.4723148
七盞茶 蘆洲光華店,4.8,55,冰品飲料店,新北市蘆洲區光華路154號1樓,25.0823163,121.465742
五桐號WOOTEA新北蘆洲光華店,4.1,47,冰品飲料店,新北市蘆洲區光華路124號1 樓,25.0825407,121.466632
紅茶洋行蘆洲中山店,4,17,冰品飲料店,新北市蘆洲區中山二路211號,25.08036,121.470612
享檸樂,4,49,無酒精飲料店,新北市三重區文化北路87巷1-1號號,25.0673515,121.4983473
Sora Umi 手作飲品,4.3,11,冰品飲料店,新北市三重區溪尾街190號,25.0808228,121.4882453
車路頭的泡泡冰,4.5,10,冰品飲料店,新北市三重區車路頭街139巷6號,25.0763199,121.4840796
五爽剉冰,4.8,11,冰品飲料店,新北市三重區自強路二段74巷67號,25.0695836,121.4869481
角頭胖達芒果冰,4.3,40,冰品飲料店,新北市蘆洲區信義路178號,25.0841277,121.4793348
陳家關西燒仙草,0,0,冰品飲料店,新北市三重區疏洪十六路24號重新橋觀光市集美食區號攤,25.049449,121.4800048
茶境 Gala,0,0,冰品飲料店,新北市三重區安慶街340號,25.0670769,121.488332
力將養生藥膳茶,0,0,冰品飲料店,新北市三重區信義街20號,25.0650648,121.4996553
艾思手作甜品小棧,5,3,冰品飲料店,新北市三重區三和路四段32巷46號1樓,25.0738184,121.4898327
仙古茶道（仁愛店）,3.5,46,冰品飲料店,新北市三重區仁愛街38號,25.0718359,121.4963189
毒水製茶｜珍珠奶茶｜手搖飲料專賣店,5,45,冰品飲料店,新北市三重區重新路四段61號1樓,25.052812,121.4913685
清心福全三重中華店-珍珠奶茶手搖飲料專賣店,4.2,84,珍珠奶茶,新北市三重區中華路71號,25.0624797,121.4837536
CoCo都可 集美店,3.8,258,冰品飲料店,新北市三重區永福街217號,25.054221,121.491145
交心茶 Justea,4.8,21,冰淇淋設備供應商,沒有地址,25.051969,121.4937175
清心福全 三重龍門店,4.4,132,冰品飲料店,新北市三重區龍門路93號,25.0724946,121.4973719
壺口調茶手作特調茶飲-三重永福創始店,4.1,8,珍珠奶茶,新北市三重區永福街56號,25.0779877,121.4815052
清心福全三重五華店-珍珠奶茶手搖飲料專賣店,3.9,144,珍珠奶茶,新北市三重區五華街136之1號,25.0837371,121.4915329
紅茶洋行-三重國隆店,4.7,76,冰品飲料店,沒有地址,25.0639905,121.4929275
清心福全三重正義北-珍珠奶茶手搖飲料專賣店,3.3,121,無酒精飲料店,新北市三重區正義北路219號,25.0688097,121.4961032
清心福全三重三和店-珍珠奶茶手搖飲料專賣店,4,190,珍珠奶茶,沒有地址,25.0793421,121.4822075
小妞茶飲,5,10,冰品飲料店,新北市三重區正義北路256巷7號,25.0684751,121.4955793
Good Drink讚豆綠豆冰沙三重大智店,4.8,15,冰品飲料店,沒有地址,25.0650737,121.4922754
好了啦紅茶冰-三重文化北,5,2,無酒精飲料店,新北市三重區文化北路24號,25.0644177,121.4990717
三和愛玉冰,2.3,12,冰品飲料店,新北市三重區中央北路125~3號,25.0679545,121.4998746
茶聚CHAGE三重信義店｜香片領導品牌,4.8,130,冰品飲料店,沒有地址,25.064559,121.498104
拾?茶屋三重自強店,4.4,7,冰品飲料店,新北市三重區自強路一段205號,25.0684839,121.4916194
泰迪熊私藏茶 三重店,4,44,冰品飲料店,新北市三重區新北大道一段62號,25.0615506,121.4870263
學理茗茶,4.5,2,茶葉店,新北市三重區頂崁街210巷20號,25.0677609,121.4762898
COMEBUY_三重溪尾,4,73,冰品飲料店,新北市三重區溪尾街215號,25.0809857,121.4883763
陳Q黑砂糖剉冰,3.9,866,冰品飲料店,沒有地址,25.0667573,121.4937732
都渴以 Whatever -新莊五工店,4.6,5,冰品飲料店,新北市新莊區五工三路85號,25.0651336,121.4585985
好了啦紅茶冰-新莊頭前店,5,8,冰品飲料店,新北市新莊區化成路357號,25.0568024,121.4656566
CoCo都可 新莊化成店,4.1,134,冰品飲料店,新北市新莊區化成路618號,25.0548579,121.4661376
50嵐 頭前店,4.2,310,冰品飲料店,新北市新莊區化成路209-2號,25.051575,121.465991
關渡古錐ㄟ,5,2,冰品飲料店,新北市新莊區五工三路94巷4號1樓,25.065637,121.4584506
七盞茶 新莊化成店,4.6,81,冰品飲料店,新北市新莊區化成路289號,25.0549284,121.4660179
COMEBUY_新莊化成店,3.7,39,冰品飲料店,新北市新莊區化成路624號,25.0550092,121.4662512
茶聚CHAGE中和福美店｜香片領導品牌_新北手搖飲料店外送外帶加盟推薦 在地美食飲料茶飲創業加盟,4.9,1,冰品飲料店,新北市中和區福美路310號,25.0049413,121.4968425
TEA TOP第一味 中和中和店,4.8,323,冰品飲料店,新北市中和區中和路107號,25.0002875,121.5015709
TEA'S原味中和廣福店,3.9,101,冰品飲料店,"No. 36, 廣福路中和區新北市235",25.002361,121.5044128
武林茶文創人文茶飲坊/中和連城店,4.7,103,冰品飲料店,新北市中和區連城路25號,25.0019723,121.4987046
上宇林頂級茶飲中和連城店,4.5,193,冰品飲料店,新北市中和區連城路43號,25.0017241,121.4982841
麻古茶坊中和中和店,3.5,171,冰品飲料店,新北市中和區中和路34號,25.0016445,121.4998076
19.5 TEA新北中和店,4.8,224,冰品飲料店,新北市中和區中山路二段479號,25.0048251,121.4829653
涼夏冰品||||黑糖|豆花|嫩仙草|剉冰|冰沙|甜品|古早味鳳梨冰|清涼|解渴|中和|永和,4.9,91,冰品飲料店,新北市中和區連城路23巷3號,25.001805,121.4991488
無飲中和店,4.4,136,冰品飲料店,新北市中和區南山路14號,24.9984844,121.5019735
一只小芋圓-中和景新店｜人氣飲料｜網紅甜品｜寵物友善｜手工仙草｜黑糖刨冰｜芋圓地瓜圓｜超大杯,4.9,130,冰品飲料店,新北市中和區景新街230之4號,24.9941745,121.5084147
可不可熟成紅茶-中和福祥店,3.3,61,冰品飲料店,新北市中和區福祥路5號,25.002986,121.499346
友町冰品-中和店,4.9,65,冰品飲料店,新北市中和區莊敬路49巷20弄8號1樓,25.0058749,121.5019971
COMEBUY(中和中安店),4.1,182,冰品飲料店,新北市中和區中安街76號,25.0020554,121.5123007
日出客棧茶飲-小農鮮奶/日出紅茶/紅茶拿鐵 (中和店),4.8,104,冰品飲料店,新北市中和區信義街69號,24.987978,121.5117216
Hashtea 井製茶飲,4.6,126,冰品飲料店,新北市中和區景安路179號,24.9940661,121.5051631
功夫茶 KUNGFUTEA 中和中和店,4.8,287,珍珠奶茶,新北市中和區中和路115號,25.0002512,121.5016934
CoCo都可 中和連勝店,3.8,114,冰品飲料店,新北市中和區連勝街9號,24.9984281,121.499
COMEBUY_中和中山店,4.1,353,冰品飲料店,新北市中和區中山路二段276號,25.0025416,121.4964935
Drink Store水雲朵中和南勢角店,3.7,310,冰品飲料店,新北市中和區景新街408號,24.9893256,121.5126222
一手私藏世界紅茶 中和遠東店,4.5,44,冰品飲料店,新北市中和區建一路160號1樓,24.9980686,121.4874691
杯塔MyBeta創意飲品商行,4.4,42,冰品飲料店,新北市中和區連城路347巷1弄2號,24.9957316,121.4882782
迷客夏Milksha 新北中和店,3.3,364,冰品飲料店,新北市中和區員山路136號,24.9964114,121.4812872
CoCo都可 中和福美店,4.4,123,冰品飲料店,新北市中和區福美路240號,25.0053067,121.4987831
母女大聯盟心黑飲料店,4.3,40,冰品飲料店,新北市中和區錦和路362號,24.9913043,121.4906212
找茶drinks,3.8,14,冰品飲料店,新北市中和區錦和路169號,24.9914078,121.490805
茶二坊 斯里蘭卡 台灣 茶飲專門,4.9,226,冰品飲料店,新北市建一路170-2號F棟中庭遠東世紀廣場1樓,24.99769,121.4874786
珍煮丹 中和連城店,3.4,291,冰品飲料店,新北市中和區連城路17號,25.0021161,121.4989568
茶鬍 Beard Cup 中和泰和店,4.7,101,冰品飲料店,新北市中和區泰和街23號,25.0001809,121.4994506
寶島紅茶冰中和廣福店,4.6,20,冰品飲料店,新北市中和區廣福路76號,25.0016683,121.5030422
拾?茶屋 中和永貞店,4.7,407,冰品飲料店,新北市中和區永貞路280號,25.0038238,121.5133713
功夫茶 KUNGFUTEA 中和遠東世紀店,4.7,181,冰品飲料店,新北市中和區中正路736號,24.997778,121.4857448
CoCo都可 景安店,3.7,187,冰品飲料店,新北市中和區景安路154號,24.9930879,121.5047158
清心福全中和橋和店-珍珠奶茶手搖飲料專賣店,3.4,357,冰品飲料店,新北市中和區橋和路105號1樓,25.0056998,121.4909111
戀鮮乳中和店,4.3,146,冰品飲料店,新北市中和區保健路27之1號,24.9979872,121.5086082
巷內綠豆饌,4.6,98,冰品飲料店,新北市中和區新興街15巷2號,25.0026739,121.5122107
康青龍創意茶飲_中和景安店,4.1,78,冰品飲料店,新北市中和區景安路145號1樓,24.9953452,121.5055363
COMEBUY_中和宜安店,3.6,257,冰品飲料店,新北市中和區安平路94號1樓,24.9969224,121.5113937
阿華冰室,0,0,冰品飲料店,新北市中和區中和路400巷13號,25.0024404,121.5115241
王一大飲料店,4.5,15,冰品飲料店,新北市中和區員山路527號,25.0069982,121.4795932
藥膳排骨/北極冰鑽冰品店,4.4,49,冰品飲料店,新北市中和區福美路298之1號,25.0050526,121.4972267
李記古味紅茶冰（中和華中店）,3.4,56,冰品飲料店,新北市中和區福美路318號,25.0047954,121.4965748
永貞新村紅茶冰X甜甜圈-中和仁愛,4.5,64,冰品飲料店,新北市中和區仁愛街49號,24.9881585,121.5112248
原味穀舞-中和宜安店,4.4,72,冰品飲料店,新北市中和區宜安路145號,24.9985863,121.5091129
先喝道中和連城店,4.8,32,冰品飲料店,新北市中和區連城路353號,24.9960482,121.4879015
進發家-中和復興店 飲料店,4.2,246,珍珠奶茶,新北市中和區復興路75號,24.9901065,121.5036515
非常找茶鮮果茶飲 中和新生店,4,56,冰品飲料店,新北市中和區新生街194號,24.9993787,121.4836239
可不可熟成紅茶-中和景新店,3.6,122,冰品飲料店,新北市中和區景新街427號,24.9891084,121.5129479
可不可熟成紅茶-中和民樂店,3.8,294,冰品飲料店,新北市中和區民樂路2-1號,25.0010362,121.4815257
五桐號WooTea新北中和環球店,4.9,67,冰品飲料店,新北市中和區中山路三段101號,25.0057506,121.4750862
980D呷飽飲茶 中和建一店,4.3,7,冰品飲料店,新北市中和區建一路183號,24.9980154,121.4883672
清心福全中和連城店-珍珠奶茶手搖飲料專賣店,3.5,75,冰品飲料店,新北市中和區連城路315之1號1 樓,24.996105,121.4894075
白巷子中和民享店,4,134,冰品飲料店,新北市中和區民享街86巷1號1樓,25.0008144,121.4743924
可不可熟成紅茶-中和景安店,3.4,115,冰品飲料店,新北市中和區景安路191號,24.992961,121.5049851
茶湯會,3.1,210,冰品飲料店,新北市中和區新生街213號,24.999636,121.4838809
三年五班黑糖珍珠鋪-中和安平店,4.2,374,冰品飲料店,新北市中和區安平路100號,24.9972414,121.511623
曼士茶Manstea-中和連城店,3.9,37,冰品飲料店,新北市中和區連城路381-2號,24.9960809,121.4868539
珍甜蜜飲品,4.8,33,冰品飲料店,新北市中和區新生街14號,25.0043782,121.4830385
佐日光茶館 景安店,4,110,冰品飲料店,新北市中和區景平路502之2號,24.9937197,121.5039949
四季紅茶冰 民享店,4.1,49,冰品飲料店,新北市中和區民享街52號,25.0024915,121.4739336
CoCo都可 中和員山店,4.2,285,冰品飲料店,新北市中和區員山路339號,25.001604,121.481177
七盞茶 中和南華店,4.5,159,冰品飲料店,新北市中和區南華路4號,24.9953556,121.5022257
燒等一夏Ciao ice-中和冰店 中和芝麻湯圓 中和紅豆湯 永安市場冰店 燒仙草 四號公園冰店,4.7,111,冰品飲料店,新北市中和區安平路186號,24.9989869,121.5131495
泰汲∼手工泰式奶茶,4.9,139,冰品飲料店,新北市中和區員山路324號,25.0031693,121.4812766
50嵐 中和員山店,3.4,82,冰品飲料店,新北市中和區員山路325-2號,25.0009211,121.4811009
好喝吧Drink Bar 台灣好茶專賣,4.9,21,冰品飲料店,新北市中和區建八路130-4號,24.9984854,121.4888199
特旺紅茶屋,4.5,28,冰品飲料店,新北市中和區圓通路321-5號,24.9906801,121.4926065
好了啦紅茶冰-中和立德店,5,11,冰品飲料店,新北市中和區立德街23號,25.0072427,121.488608
老賴茶棧中和南勢角店,3.9,164,冰品飲料店,新北市中和區興南路一段92號,24.9891574,121.5098856
茶之漾中和環球店｜茶葉、禮盒販售｜買五送一,4.6,43,冰品飲料店,新北市中和區中山路三段139號1樓,25.0060298,121.474034
唐棉茶飲-中和莒光店,3.6,71,冰品飲料店,新北市中和區莒光路94號,25.0024619,121.4722454
五桐號WooTEA中和員山店,4.6,109,冰品飲料店,新北市中和區員山路246號,25.0013865,121.4814285
Tea's原味 中和員山店,4.6,117,冰品飲料店,新北市中和區員山路460號,25.0063079,121.4800281
CoCo都可 德光店,4.2,242,冰品飲料店,新北市中和區德光路93號,25.0034848,121.4689887
唐棉中和民德店,3.5,63,冰品飲料店,新北市中和區民德路146巷2號,25.0004282,121.4686575
黑丸嫩仙草(門市）-中和中正店,4.1,349,冰品飲料店,新北市中和區中正路214號,24.9940484,121.4966805
一青苑手工茶殿 中和員山店,4.5,99,冰品飲料店,新北市中和區員山路115號,24.9952733,121.4808208
約翰紅茶公司,4.3,359,冰品飲料店,新北市中和區興南路一段88號,24.9892857,121.5098827
福豆養生豆奶 Fudou Soy Milk,4.6,13,冰品飲料店,新北市中和區莊敬路49巷10弄8號,25.0055299,121.5018297
好了啦超大杯紅茶冰,2.7,3,冰品飲料店,新北市中和區民安街15號,25.0006444,121.480559
Chatime日出茶太-Global Mall環球新北中和,4.6,579,冰品飲料店,新北市中和區中山路三段122號3樓,25.006673,121.474779
d? day茶日 連城店,4.5,87,冰品飲料店,新北市中和區連城路359號,24.9960491,121.4876815
COMEBUY_中和遠東廣場,3.8,23,冰品飲料店,新北市中和區建八路2號一樓A戶,24.9982769,121.4862231
50嵐 中和環球店,3.7,334,冰品飲料店,新北市中和區中山路三段113號,25.0058966,121.4747283
萬波島嶼紅茶中和民樂店,3,22,冰品飲料店,新北市中和區民樂路6號,25.0010574,121.4820145
?研,5,59,冰品飲料店,新北市中和區中板路16號,25.011755,121.4841373
好韻茶堂（手搖飲料）,3.9,16,冰品飲料店,新北市中和區華福街10號,24.9966733,121.4658067
清心福全圓通店-珍珠奶茶手搖飲料專賣店,2.7,119,冰品飲料店,新北市中和區圓通路256號,24.9910197,121.4933546
紅茶洋行（中和秀朗店）,4.5,40,冰品飲料店,新北市中和區秀朗路三段128巷1弄2號,24.9922809,121.5245135
CoCo都可 永安市場店,3.5,236,冰品飲料店,新北市永和區中和路523號,25.0028456,121.5110729
COMEBUY_中和民享店,3.7,52,冰品飲料店,新北市中和區民享街43號,25.002971,121.4740719
老賴茶棧中和員山店,3.9,142,冰品飲料店,新北市中和區民安街14號,25.0008499,121.480535
50嵐 景安店,3.2,48,冰品飲料店,新北市中和區景安路181號,24.9932398,121.5050186
鮮茶道中和員山店,4,110,冰品飲料店,新北市中和區員山路240號1樓,25.0012975,121.4813661
晴喜摘 中和環球店,4.8,260,冰品飲料店,新北市中和區中山路三段121號,25.0059629,121.4744501
COMEBUY_中和民安店,3.9,82,冰品飲料店,新北市中和區民安街6號,25.0009819,121.4807002
清心福全,2.4,117,冰品飲料店,新北市中和區德光路95號,25.0032914,121.4685527
Mr.Wish 中和環球店,4,108,冰品飲料店,新北市中和區中山路三段188號1樓,25.0065591,121.4721665
溫韻珈琲,0,0,冰品飲料店,新北市中和區民生街85巷6弄2號,25.0041246,121.469106
50嵐 中和園區店,2.9,177,冰品飲料店,新北市中和區連城路336號,24.9958673,121.4830317
久仰大茗,4.7,39,冰品飲料店,新北市中和區員山路474號,25.0066709,121.4799206
COMEBUY_中和環球,5,397,冰品飲料店,新北市中和區中山路三段100號,25.0057784,121.4771586
富萃銀品 養生甜湯 飲品,5,8,冰品飲料店,新北市中和區新生街120號之2,25.0015511,121.4834477
Futi Fudi 果滴滴 中和環球店,2.7,7,冰品飲料店,新北市中和區中山路三段122號3F,25.0066724,121.4747789
可不可熟成紅茶-永和永安市場店,3.9,126,冰品飲料店,新北市永和區中和路491號,25.0021903,121.5105277
似曾相識飲料&蔥抓餅,5,112,冰品飲料店,新北市中和區南山路47號,24.998584,121.5021483
萃茶風,4.6,426,冰品飲料店,新北市中和區連城路347巷2弄5號,24.9957832,121.4879592
浪花丸?????和分?,5,1,冰品飲料店,新北市中和區新興街6巷12號1樓,25.0024878,121.511884
楠山冰屋/杏仁茶/燒仙草/紅豆湯/花生湯/燒麻糬/刨冰四季供應/豆花/烘爐地麻糬/中和/永和/雙和,3.9,156,冰品飲料店,新北市中和區和平街114號,24.9916526,121.507006
逢甲阿郎鹽酥雞?小張茶舖-中和中興店,4.2,192,冰品飲料店,新北市中和區中興街165號,24.9907808,121.5000628
芋仙珍味,4.7,39,冰品飲料店,新北市中和區新生街256號1樓,24.997455,121.483634
馬蔥餅 馬祖奶茶 中和中原店,4.9,39,無酒精飲料店,新北市中和區板南路518號,25.0085731,121.483675
黑砂糖剉冰,3.9,95,冰品飲料店,新北市中和區新生街23號,25.0039038,121.4833621
綠豆先生 中和店,4.4,25,冰品飲料店,新北市中和區立德街15號,25.0068653,121.4890904
好了啦-中和新生店,0,0,冰品飲料店,新北市中和區新生街192號,24.9994479,121.4836633
Coco都可中和建一店,5,164,冰品飲料店,新北市中和區建一路157號,24.9992619,121.4883202
麻古茶坊中和員山店,3.3,156,冰品飲料店,新北市中和區員山路293號,25.0000399,121.4811976
能量青草茶,5,9,冰品飲料店,新北市中和區新生街214號,24.9987977,121.4837403
黛黛茶 DailyDae新北板橋店-歐風水果紅茶,4.5,69,冰品飲料店,新北市板橋區三民路二段139號,25.0152034,121.4793863
C.up C+ 嘻樂杯子,0,0,冰品飲料店,新北市中和區中正路797號,25.0004741,121.4847551
二水町 涼心事業 冰品專門店/板橋豆花/板橋剉冰/板橋冰品/板橋熱甜湯,4.6,452,冰品飲料店,新北市板橋區中山路二段85號,25.0159669,121.473992
涼水庫民安店,3.3,9,冰品飲料店,新北市中和區民安街5號,25.000777,121.480821
曾冰製湯圓冰品研製所,4.2,77,冰品飲料店,新北市中和區員山路252號,25.0015795,121.4814235
解渴飲料店 (G treeda),5,1,冰品飲料店,新北市板橋區長安街218號1 樓,25.0122464,121.4748069
TeaTop第一味 板橋中山店,4.3,134,冰品飲料店,新北市板橋區中山路二段244號,25.0181265,121.4785652
先喝道板橋中山店,4,155,冰品飲料店,新北市板橋區中山路二段136號,25.0169256,121.4764037
李記紅茶冰,3,3,冰品飲料店,新北市板橋區中山路二段412巷9號,25.0206134,121.4832353
玉仙森仙草愛玉茶飲,4.7,19,冰品飲料店,新北市板橋區中山路二段195號,25.0171243,121.4764558
麻古茶坊板橋中山店,3.9,529,冰品飲料店,新北市板橋區中山路二段110號,25.016606,121.475923
一沐日 板橋三民店,3.6,569,冰品飲料店,新北市板橋區三民路二段19號,25.018249,121.479475
好口味傳統甜品,2.7,9,冰品飲料店,新北市中和區民安街28號,25.0006709,121.4802391
五桐號WooTea 新北板橋埔墘店,3.2,218,冰品飲料店,新北市板橋區中山路二段167號,25.0168904,121.4758901
康青龍 板橋正隆店 飲料外送,4.3,65,冰品飲料店,新北市板橋區板新路9之1號,25.0125071,121.4753846
麻古茶坊 新北新莊中原店,4.2,535,冰品飲料店,新北市新莊區中原路149號,25.0542355,121.4540079
迷客夏Milksha 新北中原店,3.3,301,冰品飲料店,新北市新莊區中原路139號,25.0542544,121.4543764
清心福全中原店-珍珠奶茶手搖飲料專賣店,3.4,160,冰品飲料店,新北市新莊區中原路337號,25.054291,121.4454664
50嵐 台北縣總店,3.6,257,冰品飲料店,新北市板橋區中山路二段159號,25.0167415,121.4757522
清心福全冷飲站 板橋三民店-珍珠奶茶手搖飲料專賣店,3.4,114,冰品飲料店,新北市板橋區三民路二段102巷1號,25.0167249,121.478995
沁幸經典手搖飲專賣店,4.6,131,冰品飲料店,新北市新莊區中和街95號,25.0481105,121.4472557
My茶吧飲品專賣店,4.6,37,冰品飲料店,新北市新莊區中和街179號,25.0506539,121.447725
海森食品有限公司-食品批發零售 冷凍食品批發零售 牛軋糖批發 果乾批發零售 果露批發零售 果醬批發零售 新北年菜 年菜推薦2024,4.4,68,冰品飲料店,新北市中和區中山路二段600號,25.0053671,121.4818878
哈根達斯 中和環球店,3.1,79,冰品飲料店,新北市中和區中山路三段122號號3樓,25.0066732,121.4747785
淘汽小姐 Naughty Lady_(歐姆蕾爆乳捲、氣泡飲、甜點、客製化飲品、外送服務),4.4,543,冰品飲料店,新北市中和區景平路431巷110號,24.9950247,121.5005323
默沫手作飲品 板橋四維店,4.8,313,冰品飲料店,新北市板橋區四維路188號,25.0269109,121.4643291
何家甜品鋪,4.3,1,冰品飲料店,新北市板橋區三民路二段203之3號,25.0135997,121.4793177
月半星球｜金賞獎??白玉鍋煮厚奶茶｜冰沙奶蓋｜中和板橋飲料｜,4.8,244,冰品飲料店,新北市中和區民有街4號,25.0057423,121.4754669
好了啦超大杯紅茶冰－中和民富店,4,4,冰品飲料店,新北市中和區民富街14號,25.0063187,121.4770572
夏日冰沙-綠豆沙專賣店,0,0,冰品飲料店,新北市中和區建八路20-1號,24.9985057,121.4870355
Do 飲冰區,3,1,冰品飲料店,新北市中和區民安街21號,25.000535,121.480466
禮采芙-永安市場店-永和特色茶飲|必喝飲料|熱門飲料|人氣飲料|奶蓋首選|在地推薦飲料,4.7,221,冰品飲料店,新北市永和區中和路469號1樓,25.0017362,121.5100911
泰國·遇泰式奶茶專賣店(四號公園店),4.4,112,冰品飲料店,新北市中和區中安街72號,25.0021316,121.512368
鶴茶樓- 鶴頂紅茶商店(中和永安店),4.2,516,珍珠奶茶,新北市中和區中安街42號1樓,25.002715,121.5129111
北投紅茶,3.6,36,無酒精飲料店,新北市永和區中和路493-1號,25.0022289,121.5105623
恩宇家-綠豆沙古早味飲品,4.7,207,冰品飲料店,新北市永和區秀朗路一段104號,25.0039507,121.5166142
台東山水咖啡,0,0,冰品飲料店,新北市中和區中安街120號1樓,25.0006761,121.5110963
自己來紅茶鮮乳 永和店,4.2,10,冰品飲料店,新北市永和區永和路一段112之1號,25.007382,121.5135818
鮮饗茶GOTCHA-永和店,4.4,185,冰品飲料店,新北市永和區中正路3號1樓,24.9955173,121.513828
得正#永和樂華計劃,4,359,冰品飲料店,新北市永和區保平路21號,25.0074705,121.5126882
金茶伍手作飲品-永和保平門市 woo cha tea shop,4.7,391,冰品飲料店,新北市永和區保平路25號,25.007309,121.5125138
閑茗樓 永和店,4.4,766,冰品飲料店,新北市永和區福和路247號,25.0073643,121.5181044
老賴茶棧永和樂華店,4.3,85,冰品飲料店,新北市永和區保平路19號,25.0074486,121.5127363
李記紅茶永和中正店,4.6,27,冰品飲料店,新北市永和區中正路5號,24.9955194,121.5138466
結幸堂,4.6,55,冰品飲料店,新北市中和區中安街58號,25.0023831,121.5125859
樂樂冰沙 LE DRINK,4.9,7,冰品飲料店,新北市中和區保平路372號,25.0034267,121.5062011
再睡5分鐘 - 新北樂華店,4.8,1,冰品飲料店,新北市永和區永和路一段158號,25.0084405,121.514136
清心福全 永和宜安店-珍珠奶茶手搖飲料專賣店,4.1,133,冰品飲料店,新北市永和區中正路15號,24.9956694,121.5140024
五桐號WooTea 新北永和樂華店,3.9,268,冰品飲料店,新北市永和區永和路一段150號,25.0083639,121.514238
一手私藏世界紅茶 永和中正店,4.2,257,冰品飲料店,新北市永和區中正路511號,25.0071046,121.516879
良古早味黑糖剉冰,3.9,761,冰品飲料店,新北市永和區安樂路232號,25.002531,121.5149944
CoCo都可 永和中正店,3.8,172,冰品飲料店,新北市永和區中正路184號,24.9968977,121.5154481
李記古味紅茶冰（中和華中店）,3.4,56,冰品飲料店,沒有地址,25.0047954,121.4965748
烏弄原生茶飲（永和樂華店）,3.6,168,冰品飲料店,新北市永和區保平路18巷1-1號號,25.0076501,121.5123879
一點甜 甜品店,4.8,91,冰品飲料店,新北市永和區安樂路202號,25.0018873,121.5151889
好實在冰品店,4.6,108,冰品飲料店,新北市中和區宜安路63號一樓,24.996923,121.51142
三分春色 永和樂華店,4.9,314,冰品飲料店,新北市永和區永和路一段180號,25.008968,121.5143777
鬆苑比利時鬆餅Waffle Yard,4.9,34,冰品飲料店,新北市中和區永貞路239巷5號,25.0034054,121.5127158
迷客夏Milksha 新北永和樂華店,2.8,50,冰品飲料店,新北市永和區保平路24號,25.0075978,121.5122228
同班同學 Teaschool,4.5,99,冰品飲料店,新北市永和區福和路326號,25.0073463,121.5155591
雅淳水果茶-樂華店,5,1,冰品飲料店,新北市永和區永平路192號,25.0094739,121.510309
鱷油手工現洗愛玉,4.7,19,冰品飲料店,新北市永和區永平路164號號前,25.0089119,121.5109143
超前部暑—冰城,4.8,239,冰品飲料店,新北市永和區安樂路226號,25.0023868,121.5150243
椰太泰?摩摩渣渣｜椰奶西米露?,5,3,冰品飲料店,新北市永和區永平路7號1樓,25.0086721,121.513838
何家甜品鋪-剉冰雪花冰(永和中正),4.2,522,冰品飲料店,新北市永和區中正路31號,24.9958398,121.5141194
詩篇 頂溪店 新北永和必喝手搖飲,4.4,105,珍珠奶茶,新北市永和區中興街17號,25.0120634,121.5159426
木昂手作天然飲品 永和竹林店,4.9,17,冰品飲料店,新北市永和區竹林路185號,25.0095735,121.5206727
胖妞仙草奶凍,3.4,72,冰品飲料店,新北市永和區永平路28號,25.0088564,121.5130696
可不可熟成紅茶-永和頂溪店,4,601,冰品飲料店,新北市永和區永和路一段125號,25.0083516,121.5138716
一江春,4.8,108,冰品飲料店,新北市永和區智光街44號,24.998083,121.5170723
77號果汁飲料,5,1,冰品飲料店,新北市中和區中和路77號,25.001178,121.5008455
糖舖挫冰,4.1,34,冰品飲料店,新北市中和區保平路269號,25.0041402,121.5069932
不可不喝 奶昔屋,3.8,180,冰品飲料店,新北市永和區永平路170號,25.0090385,121.5107613
日出客棧茶飲（永和保安店),4.7,157,冰品飲料店,新北市永和區保安路240號1樓,25.0132284,121.5067984
芋見幸福大甲芋頭牛奶（永和店）,4.1,22,冰品飲料店,新北市永和區永平路51號,25.0085774,121.5127875
TEA TOP 第一味(永和永元店）,4.2,178,冰品飲料店,新北市永和區永元路95巷1號,25.0018412,121.5224261
樂華天下紅茶店,3.4,595,冰品飲料店,新北市永和區永平路171號,25.0088918,121.5105646
龜記茗品 永和頂溪店,4.1,180,冰品飲料店,新北市永和區永和路二段93號,25.0115515,121.5147422
清心福全冷飲站秀朗二店,2.8,102,冰品飲料店,新北市永和區得和路107號,25.000321,121.5182942
幾何茶 GEO TEA | 永和永貞店?鮮奶茶＆果茶專賣,5,55,冰品飲料店,新北市永和區永貞路127號,25.0041999,121.517069
七築冬瓜茶飲專賣店,4.7,81,冰品飲料店,新北市永和區中興街21號,25.0119544,121.5160194
覓糖Mi Tang 永和中正店,4.7,99,冰品飲料店,新北市永和區中正路39-1號,24.996059,121.5142977
迷客夏Milksha 新北景新店,3.9,615,冰品飲料店,新北市中和區景新街363號,24.9907438,121.5121752
冰逗樂,4,28,冰品飲料店,新北市永和區永貞路308號,25.0048733,121.5118602
日蜜蜂禾 HoneyDay蜂蜜飲,5,50,冰品飲料店,新北市永和區民光街2號1樓,24.9964382,121.5152279
北投紅茶-興南店,2.9,104,冰品飲料店,新北市中和區興南路一段55號之2,24.9900613,121.5107577
芋圓咬一口 永和店,4.4,473,冰品飲料店,新北市永和區永貞路414號,25.0080058,121.5089424
50嵐 樂華店,3,412,冰品飲料店,新北市永和區永和路一段144號,25.0082443,121.5142108
保平52 黑糖米苔目粉粿冰（冬季燒仙草紅豆湯花生湯）,4.8,134,冰品飲料店,新北市永和區保平路52號,25.007085,121.5112654
CoCo都可 南華店,4.1,335,冰品飲料店,新北市中和區南山路167號,24.9952731,121.5028889
大苑子樂華店,3.6,272,冰品飲料店,新北市永和區永和路一段146號,25.0082995,121.5140935
麻古茶坊中和南勢角店,3.9,317,冰品飲料店,新北市中和區興南路一段41號,24.990452,121.5109997
狄斯耐冰城,4.4,38,冰品飲料店,新北市永和區保平路268巷35號,25.0061092,121.5076901
勇伯綠豆沙,3,4,冰品飲料店,新北市永和區永平路81巷1號,25.0081864,121.5118857
Mr.雪腐 (雪花冰/鴨血豆腐),4.5,2,冰品飲料店,新北市永和區得和路2號,25.0007072,121.5147263
Spade Tea Yonghe Original,4.3,1,冰品飲料店,新北市永和區永貞路230號,25.0040064,121.5149612
甘蔗汁,2,1,冰品飲料店,新北市永和區保福路一段4號,25.0078874,121.5133713
COMEBUY_中和南華,3.7,58,冰品飲料店,新北市中和區南華路16號,24.99558,121.5027553
豆韻 豆漿豆花專賣店 中和豆花/永和豆花/新北豆花/中和甜點/永和甜點/中和下午茶/中永和豆花/剉冰/黑糖剉冰/手工豆漿/豆乳,4.4,757,冰品飲料店,新北市中和區安平路218號,24.9999247,121.5139152
永美雪花冰,4.4,1,冰品飲料店,新北市永和區永平路67號,25.0083752,121.5121454
清原芋圓 永和得和店,4.1,241,冰品飲料店,新北市永和區得和路103號,25.0004546,121.5182374
好了啦紅茶冰 中和華夏店,4.7,33,冰品飲料店,新北市中和區華新街152-5號,24.982481,121.5076987
清心福全中和漢生店-珍珠奶茶手搖飲料專賣店,2.4,37,珍珠奶茶,新北市中和區中山路三段194號,25.0066545,121.4720803
功夫茶 KUNGFUTEA 中和環球店,4.7,386,珍珠奶茶,新北市中和區中山路三段162號,25.0064259,121.4731303
五桐號 板橋中山店,3.6,230,冰品飲料店,新北市板橋區中山路一段92號,25.0101145,121.4620917
甘蔗?媽媽-板橋中山店,3.9,226,冰品飲料店,新北市板橋區中山路一段102-3號,25.0103285,121.4625755
阿弟仔茶飲果汁冰品,3.8,52,冰品飲料店,新北市中和區景新街410巷42號,24.9887285,121.5116175
可不可熟成紅茶 板橋中山府中店,3.8,375,冰品飲料店,新北市板橋區中山路一段102-1號,25.0101752,121.4624549
50嵐 板橋中山二店,3.8,355,冰品飲料店,新北市板橋區中山路一段135號,25.0105744,121.4624245
萬波島嶼紅茶 Wanpo Tea Shop 永和頂溪店,3.3,192,冰品飲料店,新北市永和區中山路一段6號,25.0105055,121.5142714
天仁茗茶 環球店,2.6,93,珍珠奶茶,新北市中和區中山路三段122號B2樓,25.0062395,121.4751313
一手私藏世界紅茶 板橋府中店,3.8,151,冰品飲料店,新北市板橋區中山路一段70號,25.0098781,121.4616794
巷弄內 波霸珍珠奶茶,4.3,1,冰品飲料店,新北市板橋區中山路一段50巷1弄4號,25.0091883,121.4612942
大和職茶Yamatocha,4.3,197,冰品飲料店,台北市中山區中山北路一段140巷13號1樓,25.0515173,121.5215043
珍煮丹府中店,3.5,191,冰品飲料店,新北市板橋區中山路一段29號,25.008869,121.4604822
綠蓋茶館 誠品板橋店,3.9,48,冰品飲料店,新北市板橋區中山路一段46號2F,25.0088325,121.4607906
SOMA特調飲品 中山概念店 Tea & Mocktail,3.6,836,冰品飲料店,台北市中山區中山北路二段20巷23號,25.0537538,121.5208166
白巷子樹林中山店,4.4,83,冰品飲料店,新北市樹林區中山路ㄧ段47號,24.9922999,121.424045
?十八木．板橋府中門市,3.9,221,冰品飲料店,新北市板橋區中山路一段38號,25.0086654,121.4606238
抿茶 min cha 中山店,4.4,463,冰品飲料店,台北市中山區中山北路一段140巷10號1樓,25.0514079,121.5213751
浪花丸?????和分?,5,1,冰品飲料店,台北市中山區中山北路一段140巷10號1樓,25.0024878,121.511884
得正#板橋新民計劃,3.5,282,冰品飲料店,新北市板橋區新民街41號1樓,25.0107128,121.4639293
先喝道永和秀朗店,4,130,冰品飲料店,新北市永和區得和路293號,24.9997684,121.5228105
板橋阿嬤紅茶,4.7,69,冰品飲料店,新北市板橋區大華街96號,25.0054789,121.4591285
天仁茗茶 永和店,3.1,232,冰品飲料店,新北市永和區永和路二段234號,25.0144124,121.5158332
白巷子(雙連店),4,292,冰品飲料店,台北市大同區民生西路102號,25.0574113,121.5198195
豆花匠 傳統原味豆花 嫩仙草,4,55,冰品飲料店,新北市中和區華順街121號,24.9965992,121.465372
北門號綿綿冰專賣店,4.7,212,冰品飲料店,新北市板橋區北門街14號,25.01063,121.4577467
Leway 樂?本味,4.3,393,冰品飲料店,台北市中山區合江街107號,25.0599206,121.5393262
烏弄原生茶飲 晴光店,3.8,95,冰品飲料店,"之1號, 雙城街17巷中山區台北市10453",25.0644455,121.5245967
有料搖搖茶yoyocha,4.5,226,冰品飲料店,台北市大同區鄭州路21巷4號,25.049523,121.5144476
有飲 Youin 創意飲品-台北伊通店,3.9,289,冰品飲料店,台北市中山區伊通街97號,25.0531794,121.5349488
茶山人,4.9,350,冰品飲料店,新北市中和區連城路355號,24.9960482,121.4878285
無飲中山店,4.4,200,冰品飲料店,台北市中山區中山北路一段105巷8號,25.0506357,121.5233852
黑丸嫩仙草(門市）-中和中正店,4.1,348,冰品飲料店,沒有地址,24.9940484,121.4966805
谷得好好 品牌總部,3,1,冰品飲料店,新北市中和區連城路304號,24.996353,121.48385
QO手工黑糖粉圓冰 ｜天然手作粉圓冰 遠東世紀廣場好喝飲料下午茶,0,0,冰品飲料店,新北市中和區中正路720-3號烏賊食堂,24.9975056,121.485591
東方洋行 中和圓通店,4.4,18,冰品飲料店,新北市中和區圓通路250號,24.9919896,121.4943566
布萊恩紅茶 新北中和店,4.2,17,冰品飲料店,新北市中和區連城路403號,24.9960993,121.4860451
茶好韻飲料店,5,4,冰品飲料店,新北市中和區連城路347巷4弄16號,24.9956976,121.4876262
新北中和店,4.9,8,冰品飲料店,新北市中和區中正路736號1號樓A戶,24.9976407,121.4858173
小茶齋中和民享店,3.5,86,珍珠奶茶,新北市中和區民享街51號,25.0027096,121.4741834
一手私藏世界紅茶 中正南昌店,3.7,175,冰品飲料店,台北市中正區南昌路一段73號1樓,25.030923,121.517596
啾豆綠豆沙飲品裕民店,4.8,81,冰品飲料店,新北市板橋區裕民街54號,25.0287829,121.461339
980D呷飽飲茶 土城裕民店,4.8,137,冰品飲料店,新北市土城區裕民路137號,24.9864484,121.4516755
SOMA 特調飲品 永康店,4.1,982,冰品飲料店,沒有地址,25.0332025,121.530154
仙茶坊 中和興南店,4.5,35,冰品飲料店,新北市中和區興南路二段26號,24.985765,121.507389
佐日光茶館中和南勢角店,4.9,36,冰品飲料店,新北市中和區興南路一段93巷1號,24.988394,121.5097787
可立杯,4.5,68,冰品飲料店,新北市中和區興南路二段46號1樓,24.985182,121.5066769
留校茶看冷熱飲-校長室,4.1,141,冰品飲料店,新北市中和區景新街410巷28號,24.9888944,121.511755
十丈波紅茶興南店,5,23,冰品飲料店,新北市中和區景新街410巷17號,24.9888247,121.5119202
讚豆GoodDrink綠豆冰沙,5,14,冰品飲料店,新北市永和區中興街89號,25.0119238,121.5174275
黑瀧堂-新北永和頂溪店-,4.1,49,冰品飲料店,新北市永和區中興街14號,25.0118102,121.515864
武林茶文創人文茶飲坊/永和竹林店,4.5,759,冰品飲料店,新北市永和區竹林路89號,25.0122616,121.5196845
胖妞,3.1,8,冰品飲料店,新北市永和區福和路76巷5弄2號,25.0085043,121.5228757
麻古茶坊永和福和店,3.9,176,冰品飲料店,沒有地址,25.0074758,121.5186727
黑糖杯杯黑糖珍珠鮮奶茶飲專賣店,4.1,13,冰品飲料店,新北市永和區永平路194號,25.0094976,121.5102983
澄悠西米露,4.2,50,冰品飲料店,新北市永和區信義路126-1號,25.014823,121.5124632
紅茶巴士 Black Tea Bus - 新北樂華站,4.1,26,冰品飲料店,新北市永和區永平路51號-4號,25.008563,121.512778
冰殿,3.6,109,冰品飲料店,新北市中和區廣福路110號,25.0013183,121.5023862
共緬之-緬甸奶茶 ?????????,4.9,182,冰品飲料店,新北市永和區竹林路112號之1號,25.0116846,121.5197565
50嵐 福和店,3.7,334,冰品飲料店,新北市永和區福和路239號,25.0073483,121.5183179
清心福全永和樂華店-珍珠奶茶手搖飲料專賣店,3.9,113,冰品飲料店,新北市永和區永和路一段149號,25.009155,121.513978
COMEBUY_永和頂溪店,3.9,174,冰品飲料店,新北市永和區永和路二段30號,25.0104237,121.514764
布鹿•果漾新鮮式Blue deer (永和竹林店),4.1,121,冰品飲料店,新北市永和區竹林路209號,25.0088959,121.5207705
冰豆綠豆沙-永和樂華店,4.4,40,冰品飲料店,新北市永和區永平路24號對面攤位,25.0087188,121.5133673
清心福全永和永福店-珍珠奶茶手搖飲料專賣店,3.7,114,冰品飲料店,新北市永和區福和路124號 號,25.0080419,121.5220644
季緣 CHI YUAN | Authentic Taiwanese Tea | 師大店,4.5,212,冰品飲料店,台北市大安區師大路141號,25.0214519,121.5280722
紅茶媽媽（永和店）,4,68,冰品飲料店,新北市永和區永亨路112號,25.0043476,121.5236659
TEA TOP第一味 永和竹林店,4.6,155,冰品飲料店,新北市永和區竹林路73號竹林路上，全聯旁邊,25.0134395,121.5186673
先喝道台北古亭店,4.2,96,冰品飲料店,台北市大安區和平東路一段27號,25.0272703,121.5231632
桃-1998飲料店,4.5,67,冰品飲料店,台北市中正區中華路二段313巷15號,25.0284419,121.5062473
陳記九龍城香港茶,2.1,36,冰品飲料店,新北市永和區永平路2-1號,25.0086551,121.513929
清心福全師大店-珍珠奶茶手搖飲料專賣店,3.5,109,冰品飲料店,台北市大安區師大路108號,25.0220463,121.5281649
清心福全永和竹林店-珍珠奶茶-手搖飲料-台灣茶,3.5,165,冰品飲料店,新北市永和區竹林路38號,25.0143728,121.5174391
SOMA 特調飲品 永康店,4.1,983,冰品飲料店,台北市大安區永康街7巷3號,25.0332025,121.530154
迷客夏臺北師大店,3.3,431,冰品飲料店,台北市大安區師大路45-2號,25.0243684,121.5286511
有飲 Youin 創意飲品-台北公館店,3.9,391,冰品飲料店,台北市中正區汀州路三段221號,25.014104,121.533866
可不可熟成紅茶-台北古亭店,3.3,120,冰品飲料店,台北市大安區羅斯福路二段51號,25.0274036,121.5224692
就飲 JOYING-中正必喝飲品|推薦手搖|特色茶飲|手搖飲推薦|在地推薦飲料店|平價飲料|高cp飲料,5,14,冰品飲料店,台北市中正區愛國西路1號B1,25.0369774,121.5145091
十杯 Spade Tea - 公館店,4.2,893,冰品飲料店,台北市中正區汀州路三段277號,25.0123898,121.5354529
功夫茶 KUNGFUTEA 中和遠東世紀店,4.7,181,冰品飲料店,沒有地址,24.997778,121.4857448
好了啦紅茶冰 中和連城店,0,0,冰品飲料店,新北市中和區連城路314號,24.996095,121.483378
保安街泰奶（樂華店）,4.3,15,冰品飲料店,新北市永和區保福路一段10-1號,25.0082024,121.5131304
石田豆乳,4.7,18,冰品飲料店,新北市中和區員山路148巷22號,24.9970409,121.4819333
Gathering複合式泡沫紅茶店,5,1,珍珠奶茶,新北市中和區安平路60號,24.9958485,121.5105203
龜記茗品-中和景安店,4.1,139,珍珠奶茶,新北市中和區景平路361號,24.9933141,121.5045348
CoCo都可 自立店,3.8,256,冰品飲料店,新北市中和區自立路24號,24.9931955,121.5223744
清原芋圓 中和景新店,4.1,295,冰品飲料店,新北市中和區景新街414號,24.9890532,121.512745
清原芋圓 中和復興店,3.5,182,冰品飲料店,新北市中和區復興路13號,24.989642,121.5058884
Different 酪梨大王,3.5,21,冰品飲料店,新北市中和區,24.9904369,121.5082799
雙雙雪花冰,4.5,15,冰品飲料店,新北市中和區信義街22號,24.9891839,121.5109612
50嵐 得和店,4,156,冰品飲料店,新北市永和區得和路396號,24.9991073,121.5253668
麻古茶坊永和福和店,3.9,175,冰品飲料店,新北市永和區福和路229之2號1樓,25.0074758,121.5186727
COMEBUY_永和民生店,3.6,188,冰品飲料店,新北市永和區民生路24號,24.9972511,121.5224702
龜記茗品-新店佳瑪店,3.9,263,冰品飲料店,"號1樓, No. 268建國路新店區新北市23142",24.9832013,121.5376583
老賴茶棧板橋莒光店,4,94,冰品飲料店,新北市板橋區莒光路7號,25.0249596,121.4697476
妹子豆製所MEI ZI HANDMADE｜手作鹽滷豆花｜手作燕麥奶,4.3,123,冰品飲料店,新北市新店區安和路三段118號,24.9855323,121.5169235
五桐號WooTea 台北公館店,4.1,592,冰品飲料店,"號之1, No. 5號之1羅斯福路三段316巷中正區台北市100",25.0156579,121.5322117
黑丸嫩仙草板橋莊敬店,4,440,冰品飲料店,新北市板橋區莊敬路101號,25.02606,121.4725179
清原芋圓 萬華中華店,4.6,179,冰品飲料店,台北市萬華區中華路二段152號,25.0303258,121.5040304
喫茶Bar-土城青雲店 鮮果茶 飲料店 手搖杯推薦,4.8,114,冰品飲料店,新北市土城區青雲路263號,24.9805957,121.4592288
滿月茶作,4.8,157,冰品飲料店,新北市板橋區重慶路206號,25.0026117,121.4625702
愛玉羽仙草 原愛來愛玉 新店民族店,4.5,184,冰品飲料店,新北市永和區民生路17號,24.9992085,121.5229665
十分甜品冰品 板橋雙十店,4.5,366,冰品飲料店,新北市板橋區雙十路二段30號,25.0272114,121.4763283
實記古味紅茶冰,4.3,26,無酒精飲料店,新北市中和區仁愛街85號,24.9871036,121.5116446
有飲 Youin 創意飲品-台北南陽店,4.4,61,冰品飲料店,台北市中正區南陽街28號,25.0443413,121.516031
波諦波諦鮮做飲料,4.8,515,冰品飲料店,台北市大同區民生西路198-16號,25.0569716,121.5162151
一心豪飲 市府店,4.4,540,冰品飲料店,台北市信義區基隆路一段147巷8號,25.042268,121.565951
1996 台灣茶葉飲品專賣店 錦州店 台北必喝飲料,4.8,122,冰品飲料店,台北市中山區錦州街208號,25.0602747,121.5311338
紅芯坊飲品專賣店,5,26,冰品飲料店,新北市新莊區民安西路77號,25.019618,121.427265
小胖不減肥新北宏匯店飲料,4.6,289,冰品飲料店,新北市新莊區新北大道四段3號B2,25.0596491,121.449197
吃豆花,4.7,73,冰品飲料店,新北市永和區永利路66號,25.0048605,121.5193272
冬仙堂,4.5,453,冰品飲料店,台北市萬華區貴陽街二段112號1樓,25.0399257,121.5027776
Spade Tea Yonghe Original,4.3,1,冰品飲料店,沒有地址,25.0040064,121.5149612
SLASH 茶飲新生活 新北中和店,4.9,360,冰品飲料店,新北市中和區莒光路140號,25.0010915,121.4724134
錨起來喝(台北南陽店),3.3,302,冰品飲料店,台北市中正區南陽街36號,25.0441227,121.5160128
貢茶 西門武昌店,4.7,411,冰品飲料店,台北市萬華區武昌街二段100號,25.0449735,121.5055642
阿二冰茶,2.5,116,冰品飲料店,台北市大安區龍泉街56號,25.0237759,121.5293503
COFFEE.TEA.OR -中山形象店,4.5,1,冰品飲料店,台北市中山區南京西路23巷3號,25.0534,121.520637
侍茶匠 西門總店,4.4,367,冰品飲料店,台北市萬華區昆明街108號,25.0437691,121.5049374
黑丸嫩仙草 古亭店,4.3,458,冰品飲料店,台北市中正區同安街65號,25.023817,121.5216567
毛青茶室 Maochi Tea 松江總店,4.5,642,冰品飲料店,台北市中山區松江路365號1樓,25.0640741,121.5334338
七盞茶 中山林森北店,4.7,609,冰品飲料店,台北市中山區林森北路302號,25.0558905,121.5252919
小澤宅宅 台北伊通店,4,49,冰品飲料店,台北市中山區伊通街116號,25.0544936,121.5347296
馬祖新村 台北西門町店,4.3,321,冰品飲料店,台北市萬華區峨眉街10號1樓,25.0433394,121.5076084
iHERE西門頂級奶茶專家 X 冬仙堂,4.4,416,冰品飲料店,台北市萬華區貴陽街二段112號,25.0398835,121.5028409
先喝道北車京站店,4.2,514,冰品飲料店,"號 b2, No. 1承德路一段大同區台北市103",25.0493012,121.5171717
茗萃飲品,4.8,231,冰品飲料店,台北市大同區赤峰街81號,25.0571897,121.5197987
木衛二 伊通鑄茶所,4.2,1,冰品飲料店,台北市中山區伊通街66巷5-1號,25.0526492,121.534264
日安喝茶 歐洲無咖啡因茶 花草茶,4.9,309,冰品飲料店,台北市中山區南京西路14號誠品生活南西B1,25.052187,121.5206641
手工刀削冰(手工粉條冰),4.5,111,冰品飲料店,台北市萬華區興寧街2號,25.0322385,121.5020158
CHOW CHOW早午餐|下午茶|冰品|氣泡飲|大安厚蛋吐司|人氣冰店|必吃冰店|熱門剉冰|必吃甜品|在地推薦冰店,4.9,42,冰品飲料店,台北市大安區師大路126巷7號1 樓,25.0216759,121.5278441
可不可熟成紅茶-中正南昌店,3.5,152,冰品飲料店,台北市中正區南昌路一段45號,25.031492,121.5171701
想點 想?,4.6,56,冰品飲料店,台北市中山區中山北路三段40號大同大學經營餐廳,25.0665801,121.5218296
澤軒-台北延三店,4.3,26,冰品飲料店,台北市大同區延平北路三段72號,25.0655842,121.5109328
朱記冰果店,4.6,32,冰品飲料店,新北市中和區復興路280巷3弄13號,24.9908411,121.5016217
雙春青草茶,4.3,11,冰品飲料店,新北市中和區廟美街75號,25.0011513,121.5008597
自己來紅茶鮮乳 中和圓通店,5,1,冰品飲料店,新北市中和區圓通路269號,24.9930255,121.4959266
罔市手工粉圓,0,0,冰品飲料店,新北市中和區南山路289號,24.9920853,121.5044691
三重分店青草茶,0,0,冰品飲料店,新北市中和區南山路287號,24.9920947,121.5044544
清心福全中和南工店-珍珠奶茶手搖飲料專賣店,3,121,無酒精飲料店,新北市中和區中和路198號,24.9996831,121.5053344
武林茶文創人文茶飲坊/中和連城店,4.7,103,冰品飲料店,沒有地址,25.0019723,121.4987046
50嵐 南勢角店,3.1,264,冰品飲料店,新北市中和區景新街396號,24.9895527,121.5125042
中和珍珠奶茶,4.1,135,珍珠奶茶,"No. 106號, 廣福路中和區新北市235",25.0013271,121.5023902
冰島雪花妹南勢角店,4.8,312,冰品飲料店,新北市中和區信義街20號,24.989217,121.5110144
夯ㄟ碳烤土司,0,0,冰品飲料店,新北市中和區圓通路48號,24.9977109,121.5008022
清原芋圓 中和連城店合併至景新店,4,309,冰品飲料店,新北市中和區景新街414號,24.9890532,121.512745
讚豆GoodDrink綠豆冰沙,5,14,冰品飲料店,沒有地址,25.0119238,121.5174275
李記紅茶,1,1,無酒精飲料店,新北市中和區光華街37號,25.0039294,121.5052104
ㄐㄧㄡˋ大杯,5,2,冰品飲料店,新北市永和區文化路53號,25.0150275,121.5142249
果霸茶 永和樂華店,4.3,111,冰品飲料店,新北市永和區永和路二段35號,25.0105794,121.5144558
CoCo都可 中和興南店,3.7,250,珍珠奶茶,新北市中和區興南路一段99號,24.9883376,121.5095326
愛麗絲來找茶,4.1,52,冰品飲料店,新北市中和區華新街110號,24.982891,121.5084568
進發家-中和興南店,4.5,91,珍珠奶茶,新北市中和區興南路一段17號,24.9910677,121.5114129
50嵐 南勢角店,3.1,264,冰品飲料店,沒有地址,24.9895527,121.5125042
COMEBUY_台北景興店,4.2,235,冰品飲料店,台北市文山區景興路105號,24.99506,121.544851
捲捲義廚｜中永和美食｜義大利麵｜韓式披薩｜不限時咖啡廳,4.5,70,冰品飲料店,新北市中和區興南路一段76號2樓,24.9901156,121.510548
茶小兵 原茶專賣店,4.8,13,冰品飲料店,新北市中和區德光路99號,25.0032573,121.4684191
鶴茶樓- 鶴頂紅茶商店(中和員山店),4.2,162,珍珠奶茶,新北市中和區員山路147號,24.9963012,121.4810075
拾?茶屋 中和員山店,4.4,204,無酒精飲料店,新北市中和區員山路333號,25.001505,121.48118
上宇林頂級茶飲中和員山店,4.2,42,無酒精飲料店,新北市中和區員山路212號,25.0008644,121.4814209
布鹿•果漾新鮮式Blue deer (永和竹林店),4.1,121,冰品飲料店,沒有地址,25.0088959,121.5207705
COMEBUY_新莊中和,4.3,62,冰品飲料店,新北市新莊區中和街165號1樓,25.0501984,121.4474238
可不可熟成紅茶 中和環球店,4,242,珍珠奶茶,新北市中和區中山路三段107號,25.0058331,121.4749423
藍天館手作雪花冰,3.6,601,冰品飲料店,新北市永和區永平路53號,25.0084926,121.5124606
來Tea館,4.2,47,冰品飲料店,台北市中正區南海路101號,25.0281129,121.5078566
糖品角屋,4.5,869,冰品飲料店,台北市中正區中華路二段303巷2號,25.0292202,121.504981
甘物家 x 甘物日飲 桂林家樂福店,4.7,358,冰品飲料店,台北市萬華區桂林路1號,25.0378942,121.5057598
北極熊抱,4.4,250,冰品飲料店,台北市中正區南昌路二段181號,25.0254174,121.522927
50嵐 南機場店,3.9,191,冰品飲料店,台北市中正區中華路二段309巷5號,25.028717,121.5057135
可不可熟成紅茶 台北公館店,3.8,293,冰品飲料店,台北市中正區汀州路三段174號,25.0131935,121.5346507
泰讚了 thai like tea 公館店,4.4,171,冰品飲料店,台北市中正區羅斯福路三段286巷18號,25.0157723,121.5323869
古早茶坊,4.9,1,冰品飲料店,台北市大安區龍泉街40號,25.0243764,121.5293689
一蕊花-藝術家的冰店,5,253,冰品飲料店,台北市大安區永康街31-4號,25.0310496,121.5295869
英姐黑糖珍珠鮮奶,4,112,冰品飲料店,台北市中正區中華路二段309巷22號,25.029091,121.5062107
HITOKUCHI COFFEE,4.8,370,冰品飲料店,新北市永和區復興街102號,25.0137318,121.5175818
茶美茶專業茶飲,4,24,冰品飲料店,新北市中和區國光街95號,25.0002045,121.4704044
蒔光紅茶,4.9,62,冰品飲料店,新北市板橋區民族路170巷1之3號,25.0075335,121.4674106
伊莉莎白紅茶書房-板橋府中店,3.5,361,冰品飲料店,新北市板橋區中山路一段19號,25.008406,121.4599039
匠心茶飲,4.6,50,無酒精飲料店,新北市板橋區國光路196-1號,25.0183945,121.4614856
馬祖奶茶-中和華夏店,4.8,76,冰品飲料店,新北市中和區華新街168號1 樓,24.9823166,121.5073522
當不了醫生就賣冰,4.9,38,冰品飲料店,新北市永和區國光路116巷1-1號b7,25.0115841,121.5178049
搖滾牛冰淇淋專賣店,4.8,233,冰品飲料店,新北市中和區華順街2巷1號,24.9989376,121.4673763
壽奶茶永和店,4.8,114,無酒精飲料店,新北市永和區中山路一段164號,25.0093429,121.5094583
壽奶茶台北南京店,4.8,58,冰品飲料店,台北市松山區長安東路二段219-2號,25.0486247,121.5446865
茶朵木,4.2,120,冰品飲料店,新北市板橋區莒光路59號,25.0243002,121.4710597
東海岸茶飲專賣店,4.3,65,冰品飲料店,新北市新莊區福壽街70號,25.0490746,121.4584617
清心福全中和景安店-珍珠奶茶手搖飲料專賣店,2.9,140,珍珠奶茶,新北市中和區景安路199號,24.9927479,121.5049181
Kasgo經典紅茶-新店安和店,3.7,13,冰品飲料店,新北市新店區安和路三段99號,24.9842417,121.5176423
特旺紅茶屋,4.5,28,冰品飲料店,沒有地址,24.9906801,121.4926065
伍師傅車輪餅 中和景安店,4.4,143,冰品飲料店,新北市中和區廣福路76號,25.0016683,121.5030422
得正#台北古亭計劃,3.8,312,冰品飲料店,台北市大安區和平東路一段19-1號,25.0272796,121.5229712
戀鮮乳中和店,4.3,146,冰品飲料店,沒有地址,24.9979872,121.5086082
港仔找茶,4.8,15,冰品飲料店,新北市中和區安平路8號,24.9936573,121.5088733
清涼小棧-創意飲品店,4.8,68,冰品飲料店,新北市永和區民享街1巷二號一樓,24.9958024,121.5149142
ㄋㄟㄋㄟ補給站綠豆沙,3.6,17,冰品飲料店,新北市中和區信義街29號,24.9893107,121.5111381
玉山燒仙草,4,44,冰品飲料店,新北市中和區景新街410巷13之2號,24.9889058,121.5120835
福滿溢黑砂糖剉冰 創始店,4.1,748,冰品飲料店,新北市永和區安樂路240-1號,25.0027453,121.5149541
鱷油手工現洗愛玉,4.7,19,冰品飲料店,沒有地址,25.0089119,121.5109143
玖柒冰品店,3,2,冰品飲料店,新北市永和區智光街95號,24.9971015,121.5163997
阿爸?芋圓 樂華店,4.3,5,冰品飲料店,新北市永和區保平路18巷1號,25.0076477,121.5123365
四季可舒丫茶專賣店（萬青店）,4.4,39,冰品飲料店,台北市萬華區萬青街139號,25.0233274,121.5016407
三年五班黑糖珍珠鋪-中和安平店,4.2,374,冰品飲料店,沒有地址,24.9972414,121.511623
好實在冰品店,4.6,108,冰品飲料店,沒有地址,24.996923,121.51142
康青龍創意茶飲_中和景安店,4.1,78,冰品飲料店,沒有地址,24.9953452,121.5055363
清心福全 永和宜安店-珍珠奶茶手搖飲料專賣店,4.1,133,冰品飲料店,沒有地址,24.9956694,121.5140024
Hashtea 井製茶飲,4.6,126,冰品飲料店,沒有地址,24.9940661,121.5051631
原味穀舞-中和宜安店,4.4,72,冰品飲料店,沒有地址,24.9985863,121.5091129
蓋斯茶中和永安站,5,177,冰品飲料店,沒有地址,25.0031781,121.5133512
CoCo都可 景安店,3.7,187,冰品飲料店,沒有地址,24.9930879,121.5047158
佐日光茶館 景安店,4,110,冰品飲料店,沒有地址,24.9937197,121.5039949
一只小芋圓-中和景新店｜人氣飲料｜網紅甜品｜寵物友善｜手工仙草｜黑糖刨冰｜芋圓地瓜圓｜超大杯,4.9,130,冰品飲料店,沒有地址,24.9941745,121.5084147
可不可熟成紅茶-中和景安店,3.4,115,冰品飲料店,沒有地址,24.992961,121.5049851
50嵐 景安店,3.2,48,冰品飲料店,沒有地址,24.9932398,121.5050186
鮮饗茶GOTCHA-永和店,4.4,185,冰品飲料店,沒有地址,24.9955173,121.513828
留校茶看冷熱飲-校長室,4.1,141,冰品飲料店,沒有地址,24.9888944,121.511755
港仔找茶,4.8,15,冰品飲料店,沒有地址,24.9936573,121.5088733
COMEBUY(中和中安店),4.1,182,冰品飲料店,沒有地址,25.0020554,121.5123007
泰國·遇泰式奶茶專賣店(四號公園店),4.4,112,冰品飲料店,沒有地址,25.0021316,121.512368
兔子茶飲,4.3,13,冰品飲料店,沒有地址,24.9916396,121.5182343
燒等一夏Ciao ice-中和冰店 中和芝麻湯圓 中和紅豆湯 永安市場冰店 燒仙草 四號公園冰店,4.7,111,冰品飲料店,沒有地址,24.9989869,121.5131495
Gathering複合式泡沫紅茶店,5,1,珍珠奶茶,沒有地址,24.9958485,121.5105203
麻古茶坊中和中和店,3.5,171,冰品飲料店,沒有地址,25.0016445,121.4998076
五桐號WooTea 新北南勢角店,4,319,冰品飲料店,沒有地址,24.9891449,121.509785
禮采芙-永安市場店-永和特色茶飲|必喝飲料|熱門飲料|人氣飲料|奶蓋首選|在地推薦飲料,4.7,221,冰品飲料店,沒有地址,25.0017362,121.5100911
泰上飲,4.9,27,冰品飲料店,沒有地址,24.9883953,121.5113889
李記紅茶永和中正店,4.6,27,冰品飲料店,沒有地址,24.9955194,121.5138466
Different 酪梨大王,3.5,21,冰品飲料店,沒有地址,24.9904369,121.5082799
巷內綠豆饌,4.6,98,冰品飲料店,沒有地址,25.0026739,121.5122107
迷客夏Milksha 新北景新店,3.9,615,冰品飲料店,沒有地址,24.9907438,121.5121752
超大杯飲料店,3,1,冰品飲料店,新北市中和區景新街410巷21號,24.9887868,121.5117705
14號綠豆沙,4,7,冰品飲料店,新北市中和區仁愛街14號1樓,24.9889704,121.5106201
閑茗樓 新店店-新店必喝飲品|人氣飲料|推薦手搖|夏季飲品|飲料店推薦|珍珠奶茶推薦,4.6,605,冰品飲料店,新北市新店區中正路187號,24.9721986,121.5406292
默沫-新店北新店-手搖飲 茶飲 珍珠奶茶 水果茶,4.5,265,珍珠奶茶,新北市新店區北新路一段215號,24.9652199,121.540261
萃茶風,4.6,426,冰品飲料店,沒有地址,24.9957832,121.4879592
CoCo都可 宜安店,3.9,133,冰品飲料店,新北市中和區宜安路160號,24.9988892,121.5091343
喫茶趣ToGo(環球店),3,22,珍珠奶茶,新北市中和區中山路三段122號B2樓,25.006436,121.475059
泰上飲,4.9,27,冰品飲料店,新北市中和區信義街58號,24.9883953,121.5113889
源平溪豆花大王,3.4,117,冰品飲料店,新北市中和區忠孝街126-1號,24.9866092,121.5121075
好了啦紅茶冰－新店永安店,4,2,冰品飲料店,新北市新店區永安街80巷1號1樓3室,24.9860796,121.5201915
清心福全冷飲站中和自立店,2.7,118,冰品飲料店,新北市中和區自立路187號,24.9913939,121.5239644
中安冰店,3.7,3,冰品飲料店,新北市新店區安和路三段29-2號,24.9812679,121.5176231
吉茶莊-華夏科大店,3.1,17,冰品飲料店,新北市中和區工專路26號,24.9810374,121.5070329
烏弄原生茶飲 中和新生店,4.1,81,冰品飲料店,新北市中和區新生街150號,25.0005989,121.4836069
一芳水果茶 中和建一店,3.5,62,冰品飲料店,新北市中和區建一路183號,24.9980412,121.4883126
50嵐 中和遠東店,3.2,155,冰品飲料店,新北市中和區連城路395號,24.9960596,121.4863919
茶湯會 中和連城店,3.7,45,冰品飲料店,新北市中和區連城路385號,24.9960511,121.4866611
小茶齋 新莊店（自取買五送一）,3.9,289,冰品飲料店,新北市新莊區建福路73號,25.026766,121.4269907
茗山茶行,4.4,5,茶葉店,新北市中和區復興路295號,24.9900608,121.5016922
古早味紅茶,5,4,冰品飲料店,新北市中和區復興路281號,24.9901661,121.5021182
月半星球｜金賞獎??白玉鍋煮厚奶茶｜冰沙奶蓋｜中和板橋飲料｜,4.8,244,冰品飲料店,沒有地址,25.0057423,121.4754669
50嵐 德行店,3.8,287,冰品飲料店,台北市士林區德行西路60號,25.105171,121.522829
清心福全(中和華新店),2.7,151,冰品飲料店,新北市中和區華新街117號,24.9820071,121.5070271
貨櫃茶屋,4.4,15,冰品飲料店,新北市中和區忠孝街22號1樓,24.9828898,121.5104493
啾豆綠豆沙飲品裕民店,4.8,81,冰品飲料店,沒有地址,25.0287829,121.461339
金五春職人茶飲(伊通店),4.9,1,冰品飲料店,台北市中山區伊通街112-1號,25.054223,121.5346862
有飲 Youin 創意飲品-新北土城店,4.4,106,飲品分銷商,新北市土城區裕民路105號,24.9868956,121.4509597
甲文青茶飲專? 新北蘆洲店,4.8,629,冰品飲料店,新北市蘆洲區中正路160號,25.08565,121.4687568
七盞茶 中山吉林店-中山區推薦飲品|200元外送|手搖飲推薦|熱門飲料|下午茶點心|必喝飲品,4.2,143,冰品飲料店,台北市中山區吉林路211號,25.0603252,121.5303728
50嵐 萬隆店,3.8,273,冰品飲料店,台北市文山區羅斯福路五段217號,25.0021686,121.5391303
春山茶水舖,4.5,1,冰品飲料店,台北市大安區復興南路二段323號,25.0238974,121.5435673
再睡5分鐘 - 台北南陽店,4.6,5,冰品飲料店,台北市中正區南陽街24號,25.0443763,121.5160724
滿上仙草茶飲專賣店,3.9,306,冰品飲料店,台北市中山區松江路58號,25.0487859,121.5327458
進發家 通化店,4.2,138,冰品飲料店,台北市大安區通化街97號,25.0297497,121.5542529
五桐號 通化旗艦店,3.6,945,冰品飲料店,台北市大安區通化街41號,25.0308243,121.5543627
1996 台灣茶葉飲品專賣店,4.9,910,冰品飲料店,台北市大同區承德路三段25號,25.0640643,121.5185486
Pinatshiu WuXing 坪林手,4.5,396,冰品飲料店,台北市信義區吳興街92號,25.0304661,121.5606826
拾年茶事-萬華西門店,4.8,309,冰品飲料店,台北市萬華區漢中街195號,25.040959,121.506693
易水寒-永和分店,4.6,102,冰品飲料店,新北市永和區竹林路44-2號,25.014169,121.5175355
淘汽小姐 Naughty Lady_(歐姆蕾爆乳捲、氣泡飲、甜點、客製化飲品、外送服務),4.4,543,冰品飲料店,沒有地址,24.9950247,121.5005323
不一樣珍珠奶茶店,3.4,200,珍珠奶茶,新北市板橋區重慶路12巷1號,25.0077462,121.4607435
黛黛茶 公館秀泰店,4.4,184,冰品飲料店,台北市中正區羅斯福路四段136巷3號,25.0127214,121.535457
Tree.DA?茶飲（西門/飲料/黑糖珍珠鮮奶/3Q奶茶/ ???/珍珠奶茶）,5,229,冰品飲料店,台北市萬華區貴陽街二段115-13號,25.0400413,121.5027174
俊客思飲料店,4.1,130,冰品飲料店,新北市永和區民生路45號1樓,24.9979182,121.522891
五桐號WooTea 台北景美店,4.4,284,冰品飲料店,台北市文山區景文街104號,24.9901189,121.540905
CoCo都可 景文店,4.3,413,冰品飲料店,台北市文山區景文街95號,24.9909743,121.5413486
清心福全 景文店,2.4,196,冰品飲料店,台北市文山區景文街129號,24.9902166,121.5411819
可不可熟成紅茶 台北景美店,3.7,70,冰品飲料店,台北市文山區景文街43號,24.9919429,121.5414201
武林茶文創人文茶飲坊/景美景文店,4.4,351,珍珠奶茶,台北市文山區景文街88號1樓,24.99045,121.540983
大苑子 台北景美店,3.1,384,冰品飲料店,台北市文山區景文街94號,24.990332,121.540962
月半杯杯飲品販賣所 景大店,5,3,冰品飲料店,新北市新店區安忠路99號景文科大 第一餐廳 F棟 B2 景文宿舍大樓對面棟B2,24.9505337,121.5095648
COMEBUY 景美店,4.4,314,冰品飲料店,台北市文山區景中街9號,24.9930511,121.5418569
清心福全中和景新店,5,4,無酒精飲料店,新北市中和區景新街382號,24.9898841,121.5123513
泰讚了 thai like tea 泰式奶茶/ 景美店,4.4,107,冰品飲料店,台北市文山區景興路282巷7號號1樓,24.9896921,121.5416663
雨濃,4.3,6,冰品飲料店,新北市中和區景新街467巷4號1樓,24.9881283,121.5137244
敦本堂極品康美茶,4.8,24,冰品飲料店,新北市中和區信義街56號,24.9885854,121.5112787
飲飲作樂吐司果汁飲品,4.7,10,冰品飲料店,新北市新店區安祥路102巷98弄2號,24.96372,121.4875797
得正#中和環球計劃,3.9,79,無酒精飲料店,新北市中和區中山路三段125號,25.0059805,121.4743567
北投紅茶,3.6,36,無酒精飲料店,沒有地址,25.0022289,121.5105623
享萃,5,43,冰品飲料店,台北市大同區長安西路220巷16號,25.0507824,121.5145398
Passion鮮喝茶,4.9,24,珍珠奶茶,新北市中和區民德路296號1樓,24.9955586,121.4673924
有飲 Youin 創意飲品-台北大安店,4,1,冰品飲料店,台北市大安區大安路一段95號,25.0405023,121.5462661
QQ茶舖,0,0,冰品飲料店,新北市中和區民安街21號,25.000535,121.480466
超級達可樹林（三俊店）,3.7,22,冰品飲料店,新北市樹林區三俊街121號,25.0156475,121.417668
你的茶 unique tea,4.3,97,冰品飲料店,新北市中和區民有街1號,25.0058013,121.4754902
晴喜摘 板橋民生店,4.8,331,冰品飲料店,新北市板橋區民生路三段60號,25.0254295,121.4673337
COMEBUY_板橋民生店,4.3,251,冰品飲料店,新北市板橋區民生路三段48號,25.0251824,121.467423
小豆花冰品店,4.7,36,冰品飲料店,新北市永和區民生路61號一樓,24.9974809,121.522845
50嵐 民生店,3.5,324,冰品飲料店,台北市松山區民生東路四段104號,25.0580181,121.5542381
degugu果果迪 (敦北民生總店),4.5,370,冰品飲料店,台北市松山區民生東路四段65號,25.0580268,121.5509572
樂法 Le Phare - 民生店,4.7,261,冰品飲料店,台北市松山區民生東路三段130巷16號,25.0566428,121.5460921
天仁茗茶 民生社區店,3.4,192,冰品飲料店,台北市松山區民生東路五段126號,25.0586273,121.5612664
果汁媽粉條爸,4.2,428,冰品飲料店,新北市板橋區民生路二段230-1號,25.0221804,121.4690344
冠葉Kuantea,4.7,11,珍珠奶茶,台北市松山區民生東路四段72號,25.057846,121.552434
茶湯會(民生東五店),3.5,58,冰品飲料店,台北市松山區民生東路五段197-2號,25.0592112,121.5662559
健康橘子工坊(台北民生店),3.6,130,冰品飲料店,台北市松山區三民路156號,25.0614211,121.5632993
潮太泰????現作泰式奶茶,5,248,冰品飲料店,台北市中山區民生東路一段23巷2號,25.0583266,121.5243598
春陽茶事 台北雙連店,3.1,184,冰品飲料店,台北市中山區民生西路11號,25.0579128,121.5216149
享想 松山民生店,3.9,289,冰品飲料店,台北市松山區三民路111號1樓,25.0578205,121.563336
伊莉莎白紅茶書房-寧夏夜市殿,3.2,299,冰品飲料店,台北市大同區民生西路231號,25.057175,121.5157569
50嵐 新東店,3.9,150,冰品飲料店,台北市松山區民生東路五段197-1號,25.0592075,121.5661594
清心福全松山民生東店-珍珠奶茶手搖飲料專賣店,2.9,176,冰品飲料店,台北市中山區遼寧街43號,25.048702,121.542248
霜江茶行 台北北醫店,2.4,120,冰品飲料店,台北市信義區莊敬路390號,25.027359,121.565463
錨起來喝(台北雙連店),3.5,344,珍珠奶茶,台北市大同區民生西路149號,25.0574384,121.5179141
茶涎富錦店,4.6,227,冰品飲料店,台北市松山區富錦街532號,25.061261,121.5658241
再睡5分鐘 - 台北寧夏店,4.8,1,冰品飲料店,台北市大同區民生西路212號,25.0568827,121.5149738
EPIC茶茶,4.6,181,冰品飲料店,台北市松山區民權東路三段160巷17號,25.0605413,121.5475912
一手私藏世界紅茶 台北通化店,3.9,140,冰品飲料店,台北市大安區通化街99號1樓,25.0297336,121.5542078
五桐號WooTea 台北晴光市場店,3.3,286,冰品飲料店,台北市中山區農安街8-5號,25.064822,121.52343
阿文冬瓜茶,4.5,74,冰品飲料店,台北市松山區饒河街208號,25.050684,121.577138
五桐號WooTEA-台北合江店-中山特色茶飲|必喝飲料|熱門飲料|人氣飲料|季節飲品|在地推薦飲料,3.9,23,冰品飲料店,台北市中山區合江街113號,25.060069,121.5393284
烏弄原生茶飲(台北合江店),3.6,97,冰品飲料店,台北市中山區合江街105號,25.0598242,121.5392623
蛋裡找茶,4.7,36,冰品飲料店,台北市松山區健康路96號,25.053361,121.5549698
好泰GOODTHAI 饒河總店,4.9,158,冰品飲料店,台北市松山區饒河街161號,25.0506414,121.5752527
六順豆花,3.5,1,冰品飲料店,台北市松山區新東街26巷1-1號,25.0587702,121.5660485
大盜陳茶飲（創始店）,4.2,2,冰品飲料店,台北市大同區迪化街一段20號,25.054268,121.510076
署茗職茶@AtTea 台北內湖旗艦店,2.7,169,冰品飲料店,台北市內湖區洲子街83號,25.0803736,121.5707652
珍煮丹 台北南京店,3.8,154,冰品飲料店,台北市松山區南京東路四段108號,25.0514395,121.5545223
五桐號WooTea 台北遼寧店,3.5,152,冰品飲料店,台北市中山區遼寧街48-3號,25.049128,121.5420566
有飲 Youin 創意飲品-台北永吉店,3.7,191,冰品飲料店,台北市信義區永吉路30巷95號,25.0437268,121.5688875
古味紅茶,4.6,29,冰品飲料店,台北市信義區永吉路278巷60號之2號,25.0430745,121.5740395
可不可熟成紅茶 科技大樓店,3.8,66,冰品飲料店,台北市大安區和平東路二段307號,25.0249697,121.5450054
麻古茶坊中山農安店,3.7,320,冰品飲料店,台北市中山區農安街8-6號,25.064822,121.52343
自己來紅茶鮮乳 中和民安店,4.6,5,冰品飲料店,新北市中和區民安街9號,25.000717,121.480739
匠喝嫩仙草—民生店,4,108,冰品飲料店,台北市松山區民生東路五段192-6號1樓,25.0581596,121.5640391
迷迷狐狐,4.2,51,冰品飲料店,台北市中山區民生東路一段30號1樓,25.0578607,121.5241694
民生冰?室,5,222,冰品飲料店,台北市松山區民生東路五段137巷4弄21號,25.0599066,121.5623674
心中間,4.3,8,冰品飲料店,台北市松山區新中街6巷No. 13號,25.0584106,121.5612179
馬祖奶茶 台北敦北店,4.5,28,冰品飲料店,台北市松山區敦化北路222巷16號1樓,25.059194,121.548069
耘享濃豆乳,4.4,52,冰品飲料店,台北市松山區民生東路四段80巷1弄6號,25.0575471,121.5533375
谷泰茶莊,4.4,12,茶葉店,新北市中和區安平路144號,24.9981016,121.512413
何家甜品鋪-剉冰雪花冰(新莊幸福),4.3,455,冰品飲料店,新北市新莊區中和街156號,25.0487136,121.4475622
清心福全蘆洲三民店珍珠奶茶手搖飲料專賣店,4,95,冰品飲料店,新北市蘆洲區中山一路115號,25.0815111,121.4762405
清心福全蘆洲中華店-珍珠奶茶手搖飲料專賣店,4.4,686,冰品飲料店,新北市蘆洲區中華街25-1號,25.0815014,121.4634896
喝上隱,5,251,冰品飲料店,台北市大安區通化街103號,25.029605,121.5541335
似曾相識飲料&蔥抓餅,5,112,冰品飲料店,沒有地址,24.998584,121.5021483
自己來紅茶鮮乳 永和店,4.2,10,冰品飲料店,沒有地址,25.007382,121.5135818
爽爽喝專業茶飲,5,47,冰品飲料店,新北市土城區延和路78號,24.9892905,121.4662056
溙炎創意飲品,4.7,36,冰品飲料店,新北市土城區延和路59號1 樓,24.9898402,121.466674
初牧乳飲製造所（新莊中港店）,4.7,93,冰品飲料店,新北市新莊區中港路137號,25.0405607,121.4551061
梁記手作豆花暫時移置竹林路39巷9號(竹林雞肉旁),3.9,337,冰品飲料店,新北市永和區信義路1號,25.0118155,121.5146923
CoCo都可 北市南機場店,4,160,冰品飲料店,台北市中正區中華路二段307巷18號,25.028998,121.5058426
金嘟美食站—早餐、雞排、飲料店,4.4,174,冰品飲料店,新北市永和區福和路57巷14弄2號,25.0071798,121.5228507
谷雨茶水舖,4.8,86,冰品飲料店,沒有地址,25.0015424,121.488223
芥菜種小花園,5,13,飲品分銷商,營業中 ? 結束營業時間：17:00,23.4857501,120.0843006
好了啦-板橋府中店,2.8,4,冰淇淋設備供應商, 585 727,25.005939,121.4565846
好茶泡沫紅茶,4.1,363,冰品飲料店,新北市板橋區中正路15號,25.0123803,121.4560784
逸萃茶,4.5,47,珍珠奶茶,新北市永和區中正路476號,25.0034196,121.5175155
台灣老茶王,0,0,茶葉店,facebook.com,23.1410663,120.0843006
茶二坊 斯里蘭卡 台灣 茶飲專門,4.9,225,無酒精飲料店,新北市建一路170-2號F棟中庭遠東世紀廣場1樓,24.99769,121.4874786
CoCo都可 永和中正店,3.8,172,珍珠奶茶,新北市永和區中正路184號,24.9968977,121.5154481
功夫茶,0,0,冰品飲料店,新北市中和區南山路320巷6-7號,24.9863445,121.5071634
萬波島嶼紅茶板橋府中店,3.2,90,冰品飲料店,新北市板橋區重慶路34號,25.0075632,121.4611856
李記紅茶冰 板橋莒光店,4.2,39,冰品飲料店,新北市板橋區莒光路237號,25.0220638,121.4742779
糖舖挫冰,4.1,34,冰品飲料店,沒有地址,25.0041402,121.5069932
50嵐連城店,3.2,275,珍珠奶茶,新北市中和區連城路13號,25.0021107,121.4990866
豆林豆花,4.6,328,冰品飲料店,新北市永和區福和路283號,25.0073133,121.517416
福氣塘HOKI TEA 板橋大遠百B1F(大食代內),4.4,111,冰品飲料店,新北市板橋區新站路28號B1,25.0139366,121.4671927
368福泉布丁豆花,4.8,94,冰品飲料店,新北市永和區中正路368巷1弄47號,25.0012362,121.5193268
好福甜?豆花?雪花冰?燒仙草?紅豆湯?銀耳白木耳?刨冰挫冰?湯圓粉粿.,4.8,86,冰品飲料店,新北市永和區民享街1巷4號,24.9959304,121.5149608
茶握飲品專賣店,4.8,24,飲品分銷商,新北市永和區永貞路298號,25.0047118,121.5123199
白巷子土城廣福店,4.7,53,冰品飲料店,新北市土城區廣福街9號,24.9889335,121.4571394
霜江茶行新莊福樂店,4.2,29,冰品飲料店,新北市新莊區福樂街11號,25.0448948,121.4578332
清心福全福美店,4.6,62,無酒精飲料店,新北市中和區福美路247號,25.0050458,121.4990173
南勢角珍珠奶茶,3.5,53,無酒精飲料店,新北市中和區景新街410巷3號,24.9890897,121.5126702
七福手作茶飲,4.6,20,無酒精飲料店,新北市板橋區雙十路三段33號,25.0316103,121.470595
清心福全永和永貞店-珍珠奶茶手搖飲料專賣店,2.7,156,珍珠奶茶,新北市永和區永貞路392號,25.0074579,121.5094159
清心福全淡水真理店-珍珠奶茶手搖飲料專賣店,3.4,60,冰品飲料店,新北市淡水區新民街138號,25.1779038,121.4375719
可不可熟成紅茶-中和福祥店,3.3,61,冰品飲料店,沒有地址,25.002986,121.499346
新茶會茶飲專賣店（中和福祥店）,3.6,14,珍珠奶茶,新北市中和區永和路52號,25.0040182,121.4992708
Rico義式廚房 中和福美店｜義麵｜燉飯｜手開披薩pizza｜開胃菜 | 焗烤｜親子家庭｜朋友商務聚餐｜,4.6,74,冰品飲料店,新北市中和區福美路315號,25.0046549,121.4967333
迷客夏Milksha 新北永和得和店,4.4,244,冰品飲料店,新北市永和區得和路336號,24.9994497,121.5234392
外星小棧,5,6,冰品飲料店,新北市中和區景平路146－1號,24.9921159,121.5183069
COMEBUY_永和得和店,3.6,76,冰品飲料店,新北市永和區得和路429號,24.9991827,121.526504
珍煮丹 中和連城店,3.4,291,冰品飲料店,沒有地址,25.0021161,121.4989568
清原芋圓 中和連城店合併至景新店,4,309,冰品飲料店,沒有地址,24.9890532,121.512745
CoCo都可 永和得和店,4.1,164,冰品飲料店,新北市永和區得和路398號,24.9990806,121.5254804
永貞新村紅茶冰X甜甜圈-中和仁愛,4.5,64,冰品飲料店,沒有地址,24.9881585,121.5112248
古早味黑砂糖剉冰秀朗店（涓冰坊）,4.4,253,冰品飲料店,新北市永和區秀朗路二段293號,24.9978332,121.5261748
永和水果茶,4.1,14,無酒精飲料店,新北市永和區得和路413號,24.999288,121.5258292
清心福全中和橋和店-珍珠奶茶手搖飲料專賣店,3.4,357,冰品飲料店,沒有地址,25.0056998,121.4909111
50嵐 新店民權店,4.1,274,冰品飲料店,新北市新店區民權路123號,24.9826947,121.5357238
珍正鄉古早黑砂糖剉冰(秀山店),5,3,冰品飲料店,新北市中和區自強路66號,24.9943348,121.5198627
黑丸嫩仙草（永和秀山店）,0,0,冰品飲料店,新北市中和區更生街5號,24.9963687,121.5217147
開喝茶飲專賣店,4.2,20,冰品飲料店,新北市永和區得和路301號,24.999725,121.5229172
島灰（一品豆花）,4.4,774,冰品飲料店,新北市永和區得和路373巷2號,24.9994869,121.5248292
好了啦超大杯(新店復興店),1,1,冰品飲料店,新北市新店區復興路93號,24.9875939,121.534715
李記紅茶冰-中和積穗店,4.7,15,無酒精飲料店,新北市中和區員山路150之13號,24.9982172,121.4814295
980D呷飽飲茶 土城裕民店,4.8,137,冰品飲料店,沒有地址,24.9864484,121.4516755
粒粒小姐新莊總店,4.8,696,冰品飲料店,新北市新莊區新莊路457-4號,25.0333408,121.449496
粒粒小姐（板橋新海店）,4.9,515,冰品飲料店,新北市板橋區新海路390號,25.0262872,121.4591495
果霸茶 中和南勢角,4,23,無酒精飲料店,新北市中和區興南路一段4號,24.9914447,121.5114762
茶顏果色Tea&Juice,3.6,36,冰品飲料店,新北市中和區興南路一段2號,24.9915885,121.5116057
Come Buy,3.5,16,冰品飲料店,"樓, No. 57號興南路一段中和區新北市235",24.9899055,121.5106515
12MINI快煮鍋 捷運南勢角店,3.8,770,冰品飲料店,新北市中和區興南路一段57之1號,24.9898817,121.510625
COMEBUY_中和大勇店,3.6,184,冰品飲料店,沒有地址,24.9936789,121.5172163
李記紅茶冰 安民店,4.6,93,冰品飲料店,新北市新店區安民街357號,24.9755671,121.5166276
連城新鮮水果汁,4.6,169,果汁,新北市中和區連城路347巷3號,24.9954967,121.4883893
樂樂冰沙 LE DRINK,4.9,7,冰品飲料店,新北市中和區中安街18號,25.0034267,121.5062011
萬波島嶼紅茶 Wanpo Tea Shop 永和頂溪店,3.3,192,冰品飲料店,沒有地址,25.0105055,121.5142714
兜著走飲品專賣店,4.3,19,冰品飲料店,台北市中山區龍江路356巷35號,25.066165,121.539459
茶研社,4.4,28,冰品飲料店,台北市中山區龍江路356巷21號,25.0661178,121.5400361
CoCo都可龍江2店,3.7,153,冰品飲料店,台北市中山區龍江路350號,25.0657739,121.5408219
台茶1號 台北龍江店,3.8,77,冰品飲料店,台北市中山區龍江路395號,25.0654125,121.5410777
COMEBUY_台北龍江,4.9,168,冰品飲料店,台北市中山區龍江路356巷13號,25.0661349,121.5403993
啾豆綠豆沙飲品（台北龍江店）,4.7,49,冰品飲料店,台北市中山區龍江路356巷32號,25.0659052,121.5395425
鮮果蜜 蜂蜜飲料店,0,0,冰品飲料店,台北市中山區五常街55號,25.064442,121.539764
汝?,4.7,404,冰品飲料店,台北市中山區合江街79-1號,25.0589729,121.5392789
李記古味紅茶冰合江店,4.6,16,冰品飲料店,"號 No. 142-1, 合江街中山區台北市10491",25.0598039,121.5391338
甘萃茶,4.8,22,冰品飲料店,台北市中山區龍江路293號1樓,25.0606327,121.5409167
水巷茶弄-台北松江店,4,119,冰品飲料店,台北市中山區松江路297巷18號,25.0609973,121.5346603
慕茗軒 Mumingxuan,4.6,25,冰品飲料店,台北市中山區農安街166巷1-1號1樓,25.0645039,121.5339444
茶多酚 自然茶飲,4.7,132,冰品飲料店,台北市中山區錦州街434號,25.060118,121.5428929
鬍子茶Who's Tea - 台北合江店,4.1,68,冰品飲料店,台北市中山區合江街150號,25.0599501,121.5391005
寶島紅茶冰台北吉林,4.4,38,冰品飲料店,台北市中山區吉林路405號,25.0660137,121.5305127
珍煮丹 台北合江店,4,197,冰品飲料店,台北市中山區合江街152-1號,25.060014,121.5391088
50嵐 合江店,3.4,400,冰品飲料店,台北市中山區合江街111號,25.0600205,121.5393154
思茶MissingTea 台北錦州店,4.9,248,冰品飲料店,台北市中山區錦州街358號,25.0601514,121.5396648
3C茶道,5,23,冰品飲料店,台北市中山區民族東路122號,25.0682097,121.5283809
貢茶 台北濱江店,4.7,162,冰品飲料店,台北市中山區建國北路三段113巷7弄2號,25.066959,121.5359965
思宅 SI·JAI ｜手搖飲｜??奶茶節金賞·伯爵鮮奶茶｜,4.7,199,冰品飲料店,台北市中山區松江路297巷6號,25.0609528,121.5341153
紅茶洋行-北市農安店,4.4,81,冰品飲料店,台北市中山區農安街73號,25.0649737,121.5283672
mr.agave龍舌蘭蜜甜點 x 果染茶飲,4.7,147,冰品飲料店,台北市中山區龍江路205號,25.0563398,121.5406698
水巷茶弄(台北長春店),4,220,冰品飲料店,台北市中山區長春路368號,25.054424,121.542664
綠豆仔 中山店,4,105,冰品飲料店,台北市中山區中原街138號,25.0639148,121.5289756
再睡5分鐘 - 台北錦州店,4.8,760,冰品飲料店,台北市中山區錦州街446號,25.0600344,121.5431882
迷客夏 臺北錦州店,3.4,224,冰品飲料店,台北市中山區錦州街353號,25.0602957,121.5400769
七盞茶 中山興安店,4,64,冰品飲料店,台北市中山區興安街53號,25.0563006,121.5414527
龜記茗品 中山錦州店,3.6,95,冰品飲料店,台北市中山區錦州街446-1號,25.0601152,121.5431835
壹本茶（中山店）,4.7,97,冰品飲料店,台北市中山區天祥路1號,25.0606148,121.5211114
邱太太甜品坊,4.6,825,冰品飲料店,台北市中山區龍江路382號,25.0667522,121.5408669
功夫茶 KUNGFUTEA 台北錦州店,4.7,837,冰品飲料店,台北市中山區錦州街410號,25.0601247,121.5417041
My嘟蘭手工綠豆沙牛乳 中山遼寧店,4.3,146,冰品飲料店,台北市中山區遼寧街216號,25.0562619,121.542012
麻古茶坊 錦州店(合江街),2.5,261,冰品飲料店,台北市中山區合江街154號,25.0600686,121.5391037
康青龍 台北長春店,3.7,132,冰品飲料店,"樓, No. 380號長春路中山區台北市10491",25.0544586,121.5433225
50嵐 吉林店,3.7,247,冰品飲料店,台北市中山區吉林路185號,25.0596898,121.5303953
幸福手作．天然愛玉,4.7,155,冰品飲料店,台北市中山區中原街105號,25.0615913,121.5290544
COMEBUY_台北錦州店,3.6,128,冰品飲料店,台北市中山區錦州街242號,25.0602549,121.533844
城市愛玉,4.4,498,冰品飲料店,台北市中山區雙城街17-2號中央攤販(榮昌藥局對面,25.065012,121.5243558
熊泰 泰式奶茶中山店,5,383,冰品飲料店,台北市中山區中山北路二段50巷25號1樓,25.0562899,121.521456
大豐冰品,4.7,312,冰品飲料店,台北市中山區吉林路265號,25.0619053,121.5303958
老賴茶棧台北晴光店,4.5,115,冰品飲料店,台北市中山區農安街24-5號1樓,25.0648647,121.5254305
迷客夏 臺北農安店,3.7,251,冰品飲料店,台北市中山區農安街12號,25.0647981,121.524051
巷仔裡黑糖粉圓,4.3,33,冰品飲料店,台北市中山區松江路330巷36-4號,25.0608962,121.531666
白巷子南京東店,3.9,89,冰品飲料店,台北市中山區南京東路二段27號,25.0523039,121.5289685
茶湯會 錦州店,3.1,325,冰品飲料店,台北市中山區錦州街250號,25.0601577,121.5341768
不如咖啡外帶店 BLUBLU togo,4.9,36,冰品飲料店,台北市中山區合江街180巷21號,25.0611674,121.5382483
可不可熟成紅茶-台北錦州店,3.5,254,冰品飲料店,台北市中山區錦州街335號,25.0603219,121.5390977
好了啦-台北中原店,4.3,8,冰品飲料店,台北市中山區中原街47號,25.0573334,121.5289374
滿食茶間 - 伊通店,4.5,480,冰品飲料店,台北市中山區伊通街131號,25.054481,121.5349077
五桐號WooTea 台北中山南西店,4,461,冰品飲料店,台北市大同區南京西路18巷6號,25.0518517,121.5201716
儒記-中山南西店,4.7,246,冰品飲料店,台北市中山區南京西路12巷13弄2號,25.0516486,121.5217737
牧方MooCubed x 松江,4.5,98,冰品飲料店,台北市中山區松江路287-2號1樓,25.0604579,121.533551
享冰,3.9,436,冰品飲料店,台北市中山區錦州街409號,25.060339,121.5415833
龜記茗品-中山晴光店,4.1,305,冰品飲料店,台北市中山區農安街18-3號,25.064824,121.5248039
清心福全長春二店,4.1,56,冰品飲料店,台北市中山區長春路120號,25.0547518,121.5303141
開心茶屋,4.5,21,冰品飲料店,台北市中山區雙城街10-1號,25.064313,121.524337
阿草的店,3.3,228,冰品飲料店,台北市中山區錦州街218號,25.0602814,121.5316082
茶湯會-台北南西三店,4,355,冰品飲料店,台北市中山區南京西路15號B1,25.0527485,121.5206836
阿清嫂冰店,4.1,12,冰品飲料店,台北市中山區錦州街222號,25.0602572,121.5318989
可不可熟成紅茶 台北晴光店,3.7,341,冰品飲料店,台北市中山區雙城街15-5號,25.0643126,121.5244498
康青龍 松江陽光店,3.4,110,冰品飲料店,台北市中山區松江路129-1號,25.0536892,121.5333655
楊桃汁,4.5,4,冰品飲料店,台北市中山區中原街132號,25.0630904,121.5289015
錨起來喝(台北晴光店),3.2,370,珍珠奶茶,台北市中山區雙城街17巷2號,25.0644541,121.5246453
叮哥茶飲-NEW長春店,4.3,222,冰品飲料店,台北市中山區伊通街127-4號,25.054292,121.534972
50嵐 晴光店,3.1,291,冰品飲料店,台北市中山區農安街22號,25.0648279,121.525104
李記紅茶冰 中山天津店,4.5,11,冰品飲料店,台北市中山區天津街59號,25.0512583,121.5234357
迷客夏 臺北中山南西店,3.7,152,冰品飲料店,台北市中山區中山北路一段140巷13號,25.0515173,121.5215043
麻古茶坊台北林森店,3,98,冰品飲料店,台北市中山區長春路31號,25.0551211,121.5255783
50嵐 雙連店,3.9,410,冰品飲料店,台北市中山區錦西街14號,25.0602912,121.5214967
高記冰品,4.4,27,冰品飲料店,台北市中山區雙城街10之1號,25.0648681,121.5242795
一沐日 吉林南京店,3.9,221,冰品飲料店,台北市中山區南京東路二段56號,25.0518773,121.5298145
可不可熟成紅茶-台北長春店,3.4,110,冰品飲料店,台北市中山區長春路182-2號1樓,25.0546701,121.5345204
發發 伊通牧場,4.5,726,冰品飲料店,台北市中山區伊通街75號,25.0526753,121.5349445
清原芋圓 南京東店,4.5,473,冰品飲料店,台北市松山區南京東路三段303巷6弄1之1號1樓,25.0525032,121.5470005
普林司飲品,4.1,104,冰品飲料店,台北市大同區赤峰街8巷2號,25.0538313,121.5191937
龜記茗品-台北伊通店,4.7,426,冰品飲料店,台北市中山區伊通街127-3號,25.0542429,121.5349749
CoCo都可 林森北店,3.9,306,冰品飲料店,台北市中山區林森北路438號,25.0604506,121.5254191
大苑子-台北錦西店,3.6,313,冰品飲料店,台北市中山區錦西街5號,25.0604169,121.5219597
烏弄原生茶飲(圓山店),3.7,77,冰品飲料店,台北市大同區酒泉街26號,25.0705958,121.519362
樂法 Le Phare 林森店,3.8,286,冰品飲料店,台北市中山區林森北路263-5號,25.0548232,121.5255805
TrueWin初韻 台北南西店,4.8,738,冰品飲料店,台北市大同區南京西路69號1樓,25.0531956,121.5188582
60+ Tea Shop 中山店,5,93,冰品飲料店,台北市大同區赤峰街33巷9號1樓,25.0542063,121.5199045
喫茶趣ToGo(民權西路店),2,7,冰品飲料店,台北市中山區民權西路60號,25.0626201,121.5201831
Pinatshiu ChiFeng 坪林手 赤峰,4.3,304,冰品飲料店,台北市大同區赤峰街53巷23號1樓,25.0562197,121.5203224
五桐號WooTea 台北大直店,3.7,218,冰品飲料店,台北市中山區大直街53號,25.083166,121.546451
WOW豆花,2.3,23,冰品飲料店,台北市中山區玉門街1號,25.0703571,121.5215704
COMEBUY 台北圓山店,3.8,201,冰品飲料店,台北市大同區酒泉街12號,25.0705879,121.5196869
天仁茗茶 民權西路店,2.4,194,冰品飲料店,台北市中山區民權西路60號,25.0625922,121.5202115
小安的狗腳印雞蛋糕 (狗掌燒、咖啡、飲料) 民權西創始店,4.6,87,冰品飲料店,台北市中山區天祥路61巷18號,25.063322,121.521477
一手私藏世界紅茶 台北八德店,3.8,262,冰品飲料店,台北市中山區八德路二段277號,25.047102,121.5416619
50嵐 伊通店,4.1,364,冰品飲料店,台北市中山區伊通街66-2號,25.0526938,121.5346672
黑岩古早味黑砂糖剉冰 錦州店,4.2,1,冰品飲料店,台北市中山區錦州街195號,25.0604166,121.5314472
功夫茶 KUNGFUTEA 台北雙城店,4.2,109,冰品飲料店,沒有地址,25.0641732,121.524488
雙連古店 蓮藕茶&冬瓜茶,3.4,304,冰品飲料店,台北市大同區錦西街38巷2號,25.0602314,121.5202874
珍煮丹 台北遼寧店,3.7,340,冰品飲料店,台北市中山區遼寧街27號 1樓,25.0479439,121.542335
清心福全大直店,3,149,冰品飲料店,台北市中山區北安路528號,25.079704,121.546447
山焙 SUNBAY（南京吉林店）,4,195,冰品飲料店,台北市中山區南京東路二段38號,25.0518603,121.5295408
杯執咖啡茶飲專賣店+,4.2,119,冰品飲料店,台北市中山區長安東路一段53巷16號,25.0496688,121.5265952
清心福全中山林森北店,4.3,95,冰品飲料店,台北市中山區長安東路一段53巷19號1樓,25.0501119,121.5268261
COMEBUY_林森欣欣店,4.1,323,冰品飲料店,台北市中山區林森北路247號欣欣票口對面,25.0542805,121.5258643
五桐號WooTea 台北伊通店,4,195,冰品飲料店,台北市中山區伊通街97-1號,25.0531794,121.5349488
萬波島嶼紅茶 Wanpo Tea Shop 新台北中山店,3.4,101,冰品飲料店,台北市中山區中山北路二段52-1號號1樓,25.0562775,121.5225827
榕?茶業,0,0,茶葉店,台北市中山區中原街133號號,25.0638981,121.5291478
沐雪?茶 / 現萃茶專賣店,5,99,冰品飲料店,台北市中山區中山北路一段105巷8號,25.0506445,121.5233818
茗京萃漢方養生茶飲．天然草本飲．龜鹿膠原,4.9,204,冰品飲料店,台北市中山區長安東路二段48-1號,25.0483729,121.5320299
甘蔗?媽媽 天津店,4.3,104,冰品飲料店,台北市中山區中山北路一段105巷6號,25.0506141,121.5232033
天仁茗茶 林森店,3.5,260,冰品飲料店,台北市中山區林森北路261號,25.054456,121.5255989
老賴茶棧台北伊通店,3.3,86,冰品飲料店,台北市中山區伊通街68-1號1樓,25.0528004,121.5347108
谷得好好 紅茶專門 GUUD TEA & COMPANY-台北伊通店,4.9,268,冰品飲料店,台北市中山區伊通街68-2號,25.0528454,121.5347012
可不可熟成紅茶 中山南西店,3.5,103,冰品飲料店,台北市中山區中山北路一段140巷13號1樓,25.0515776,121.5215017
迷客夏 臺北伊通店,3.7,359,冰品飲料店,台北市中山區伊通街68-3號,25.0528686,121.5346997
鮮芋仙 中山主題店,3.4,758,冰品飲料店,台北市大同區南京西路18巷6弄1之1號,25.0519918,121.5201601
烏弄原生茶飲 遼寧店,3.2,254,冰品飲料店,台北市中山區遼寧街41號,25.048691,121.5422744
l?wfun裸放茶旅 南西店,4.7,348,冰品飲料店,台北市中山區南京西路14號誠品南西1F Togo區,25.0519247,121.5204681
城市冰品,4.6,214,冰品飲料店,台北市中山區雙城街10巷27-1號,25.064199,121.5235204
花茶大師 四平店,4.4,187,冰品飲料店,台北市中山區四平街71號,25.0536904,121.534091
巷仔裡黑糖粉圓,4.3,33,冰品飲料店,台北市中山區長春路120號,25.0608962,121.531666
得正＃台北松江計劃 Oolong Tea Project,3.6,409,珍珠奶茶,台北市中山區松江路287-5號,25.0604224,121.5336724
桂花酸梅湯,4.1,8,冰品飲料店,台北市中山區南京東路二段115巷20號號,25.0532445,121.5335422
綠色舞動 松江南京店,4.9,122,冰品飲料店,台北市中山區松江路170巷9之3號1樓,25.0562335,121.531551
龜記茗品.南西店 中山站必喝,4.1,730,冰品飲料店,台北市大同區南京西路18巷6-2號1樓,25.0518499,121.5201803
米堤銀行 鮮乳?茶 （四平分行）中山區特色飲料 中山區人氣飲料 下午茶 好看好拍 大量訂購 必喝飲料,4.6,58,冰品飲料店,台北市中山區四平街50號,25.0536075,121.532397
橘蜂糖 泰奶豆花店,4.7,57,冰品飲料店,台北市中山區雙城街10巷1-1號,25.0642289,121.5242889
鶴茶樓- 鶴頂紅茶商店(南西誠品店),4.3,200,珍珠奶茶,台北市中山區南京西路14號所在地點： 誠品生活南西,25.052187,121.5206641
鶴茶樓- 鶴頂紅茶商店(中山晴光店),4.5,217,珍珠奶茶,台北市中山區雙城街15-2號,25.0642878,121.5244606
fruitos 森果治,4.7,147,冰品飲料店,台北市中山區松江路376-1號,25.063217,121.5329211
功夫茶 KUNGFUTEA 台北雙城店,4.2,109,冰品飲料店,台北市中山區雙城街15號,25.0641732,121.524488
CAOLY TEA 茗窖茶莊 中山一店,4.9,477,茶葉店,"台北市中山區林森北路154號CAOLY TEA SHOP154 Linsen N. Rd. Zhongshan Dist. , Taipei, Taiwan茗窖茶莊 CAOLY TEA SHOPNo",25.0518781,121.52519
覓糖Mi Tang 台北興安店,4.5,796,冰品飲料店,台北市中山區興安街53-5號,25.05618,121.541866
綠色舞動 概念店,5,305,冰品飲料店,台北市中山區南京東路二段138巷17號,25.0511293,121.5338783
SEVEN DAYS,3.4,136,冰品飲料店,台北市大同區南京西路18巷6弄1-3號,25.0520481,121.52015
水巷茶弄-台北松江店,4,119,冰品飲料店,台北市中山區伊通街66-2號,25.0609973,121.5346603
李記紅茶冰 雙連捷運站店,3.5,114,冰品飲料店,台北市中山區民生西路64號1樓,25.0575239,121.5208577
台北中山水果茶｜旺飲茶飲｜台農新鮮鳳梨飲品店,4.5,31,冰品飲料店,台北市中山區伊通街97號,25.0531813,121.5350017
小制作茶 【創始店】,4.9,573,冰品飲料店,台北市中山區朱崙街57號,25.0500766,121.5415596
柚后單品茶港式茶飲專門,4.6,216,珍珠奶茶,台北市中山區遼寧街25號,25.0479166,121.5422124
一品現泡茶 中山南西店,4.7,79,冰品飲料店,台北市大同區南京西路25巷2-1號一品現泡茶1樓,25.0531403,121.5202225
EPIC茶茶,4.6,181,冰品飲料店,台北市中山區遼寧街27號 1樓,25.0605413,121.5475912
MR.TEA 新鮮茶飲專賣,4.2,40,冰品飲料店,台北市大同區南京西路163號1樓,25.0540682,121.5130578
?妹嘜養生甜品,4.1,1,冰品飲料店,台北市中山區農安街2巷20之33號,25.0641004,121.5229816
龍角 Dragon Horn 中山馬偕店,4.8,442,珍珠奶茶,台北市中山區中山北路二段77之3號,25.0576214,121.5230859
喫茶趣ToGo(林森店),1.1,9,珍珠奶茶,台北市中山區林森北路261號,25.0544457,121.5255765
50嵐 南西店,3.7,238,冰品飲料店,台北市中山區南京西路12巷3號,25.0520224,121.5214972
先喝道誠品南西店,4.3,49,冰品飲料店,"B1, No. 14號南京西路中山區台北市104",25.0520942,121.5207243
醋頭家 True Boss 長安南京店,4.2,61,冰品飲料店,台北市中山區長安東路一段53巷17號1樓,25.0500151,121.5268047
清心福全 大同站前店,3.6,214,冰品飲料店,台北市中山區長安西路52-1號,25.0486177,121.5190306
上宇林頂級茶飲中山林森北店,4.2,209,無酒精飲料店,台北市中山區林森北路410-2號,25.0595285,121.5253767
IN冰店,5,28,冰品飲料店,台北市中山區錦州街175巷9號1樓,25.0613429,121.5307803
川邸茶,3.9,57,冰品飲料店,台北市士林區承德路四段79號1樓,25.0822899,121.5234821
COMEBUY_大直北安店,4.1,115,冰品飲料店,台北市中山區北安路516-5號1樓,25.0795643,121.5457791
新醋感 ChuChuBar 大直北安店,4.6,106,冰品飲料店,台北市中山區北安路532-3號,25.0797261,121.5467546
杜芳子古味茶鋪-北市大直店,4.9,21,冰品飲料店,台北市中山區大直街55號,25.083249,121.546452
薛丁格的貓,4.7,192,冰品飲料店,台北市中山區大直街63號,25.083539,121.546446
50嵐 實踐店,3.8,166,冰品飲料店,台北市中山區大直街51號,25.083095,121.5464509
50嵐 劍潭店,3.5,188,冰品飲料店,台北市士林區承德路四段35號,25.0808735,121.5228134
萬波島嶼紅茶 Wanpo Tea Shop 台北大直店,3.4,82,冰品飲料店,台北市中山區大直街35號,25.082319,121.54651
山居甜品,4.5,228,冰品飲料店,台北市中山區北安路458巷41弄45號,25.0792834,121.5463638
清心福全士林陽明店珍珠奶茶手搖飲料專賣店,3.7,211,珍珠奶茶,台北市士林區文林路22號,25.0865855,121.5256277
TrueWin初韻 士林文林店,4.8,1,冰品飲料店,台北市士林區文林路176號,25.0895149,121.5270062
魚池貳壹-台北士林總店Tea21,4.4,1,珍珠奶茶,台北市士林區文林路24號,25.086641,121.5256547
正當冰 台北劍潭前港店,4.8,1,冰品飲料店,台北市士林區前港街60號,25.0848123,121.5206213
圓石禪飲-士林大北店,3.3,322,冰品飲料店,台北市士林區大北路15號,25.0896689,121.5264995
Chatime日出茶太-台北美麗華店,4.2,637,冰品飲料店,台北市中山區敬業三路20號B1,25.0835725,121.5575725
珍煮丹 士林大北店,4,880,冰品飲料店,台北市士林區大北路54號,25.090084,121.525658
二水三京 涼心事業 冰的專門店/圓山豆花/圓山剉冰/圓山冰品/圓山熱甜湯,4.8,3,冰品飲料店,台北市大同區酒泉街66號,25.0718451,121.5154509
愛弟豆花,4.2,1,冰品飲料店,台北市中山區北安路542號,25.0799824,121.54783
三玉號 野草茶 Taiwanwildherbtea,4.9,25,冰品飲料店,台北市士林區中山北路六段820號,25.1179901,121.5304879
烏龍萬歲Oolong Hooray,3.4,67,冰品飲料店,台北市士林區中山北路六段736號之二,25.1153975,121.5281358
50嵐 承德店,4,297,冰品飲料店,台北市大同區承德路一段20號,25.050411,121.516677
肥仔義起,4.7,549,冰品飲料店,台北市中山區大直街104號1樓,25.0842781,121.5480206
天畝豆花,3.7,94,冰品飲料店,台北市士林區中山北路六段346號,25.111636,121.526071
點冰室·????,3.7,370,冰品飲料店,台北市大同區承德路二段53巷33號,25.0553699,121.5194801
米津號冰?室 天母店,3.6,195,冰品飲料店,台北市士林區中山北路六段736號之2,25.1153975,121.5281358
一沐日 天母德行東店,4.2,208,冰品飲料店,台北市士林區德行東路21號,25.1068965,121.525891
Offline Coffee 咖啡,4.8,49,冰品飲料店,台北市中山區撫順街35-1號,25.0635025,121.519786
冰封仙果 ICE UNA 天母店Tianmu,4.8,202,冰品飲料店,台北市士林區忠誠路二段134號,25.1142585,121.5321188
烏弄原生茶飲(台北石牌店 ),4.1,115,冰品飲料店,台北市北投區裕民一路30號,25.1165306,121.5170505
迷客夏 臺北石牌店,3.9,312,冰品飲料店,台北市北投區裕民一路40巷33號,25.1153283,121.517775
東海萊姆園,4.2,224,冰品飲料店,台北市士林區天母西路3號e棟27室,25.1185343,121.5294739
50嵐 天母店,4.2,153,冰品飲料店,台北市士林區天母北路3號,25.1189617,121.5264108
春一枝。天母店。,3.5,2,冰品飲料店,台北市士林區忠誠路二段178巷15號,25.116307,121.5327924
50嵐 士東店,3.9,105,冰品飲料店,台北市士林區士東路99號,25.1122931,121.5295353
COMEBUY 天母店,3.7,113,冰品飲料店,"之29號, No. 3號1天母西路士林區台北市11156",25.1186073,121.5295333
Pavona 帕沃納咖啡,4.8,40,冰品飲料店,台北市中山區雙城街13巷9 號,25.0642128,121.524872
大苑子茶飲專賣店-台北天母店,3.4,268,冰品飲料店,台北市士林區天母西路11號,25.1185761,121.5287933
50嵐 遼寧店,3.5,197,冰品飲料店,台北市中山區遼寧街28號,25.0479328,121.542051
GINO基諾奶茶,0,0,冰品飲料店,台北市中山區遼寧街101巷2弄5號,25.050474,121.5429348
迷客夏Milksha 臺北遼寧店,3.6,256,冰品飲料店,台北市中山區遼寧街38號,25.0486068,121.5420395
植享生活?堅果木耳茶飲,5,5,冰品飲料店,台北市中山區八德路二段316號,25.04719,121.542882
茶本仙子,5,26,冰品飲料店,台北市中山區八德路二段243號,25.0469915,121.5408076
九日咖啡（復興店）9 Days Coffee,4.7,134,冰品飲料店,台北市中山區復興北路88號,25.0513241,121.5437946
福李 開心糖水鋪?公園外帶店?,5,3,冰品飲料店,台北市中山區安東街1-8號,25.0465041,121.5418454
麻古茶坊遼寧店,3.1,195,冰品飲料店,台北市中山區遼寧街46號,25.048851,121.5420563
小蜜蜂豆花專賣,3.9,48,冰品飲料店,台北市中山區合江街14號,25.0549664,121.5389991
微胖手作茶飲-松山長安店,4.5,128,冰品飲料店,台北市松山區長安東路二段290號,25.0480556,121.5452778
瀨戶茶舖,4.9,1,冰品飲料店,台北市大安區建國南路一段40號,25.0440681,121.5362348
FeelGood Inc. c6 / 碳墨啡爾 (素描畫室咖啡),5,9,冰品飲料店,台北市中山區安東街1-7號,25.0465286,121.541836
再睡5分鐘 - 台北大安店,4.8,2,冰品飲料店,台北市大安區大安路一段17號,25.0445429,121.5463273
迷客夏Milksha 臺北大直店,4,160,冰品飲料店,台北市中山區北安路592-3號,25.0814509,121.5488014
珍珠奶茶手搖飲料,3.5,22,珍珠奶茶,台北市中山區北安路528號,25.079704,121.546447
禮采芙-臺北國際機場店,0,0,冰品飲料店,台北市松山區敦化北路340-9號1樓,25.0636811,121.5518476
龜記茗品 中山錦州店,3.6,95,冰品飲料店,沒有地址,25.0601152,121.5431835
COMEBUY 松山機場店,4.9,163,冰品飲料店,台北市松山區敦化北路340-9號2號商場美食街A01第二航? (國內線航?),25.0639972,121.5500106
HAPPY BOBI波樂手搖茶飲,4.2,16,冰品飲料店,台北市信義區永吉路225巷4弄2號一樓,25.0460571,121.5740977
嚮家涼水鋪,4.4,204,冰品飲料店,台北市內湖區內湖路一段323巷4弄20號1樓,25.0827041,121.5670945
一帖茶方Teascription 台北八德店,4.7,393,冰品飲料店,台北市松山區八德路三段90號,25.0480812,121.5532128
山焙 SUNBAY (內湖科技店）,4.2,318,冰品飲料店,台北市內湖區內湖路一段367號,25.0821572,121.5695624
波仕 台北石牌店,4.6,51,冰品飲料店,台北市北投區致遠二路98號,25.1169868,121.5126062
二吉軒豆乳 復北店,4.3,468,冰品飲料店,台北市松山區復興北路195號,25.0554964,121.5443855
春芳號-台北世貿店 ︳手搖花杯之王︳牛奶糖奶茶 ︳太妃奶茶 ︳信義商圈飲料,3.1,42,冰品飲料店,台北市信義區台北市松壽路12號1樓,25.0349503,121.5659101
QQ嫩仙草(大葉高島屋),4.6,91,冰品飲料店,台北市士林區忠誠路二段55號B1,25.1118479,121.531522
COMEBUY_台北德行東,4.7,48,冰品飲料店,台北市士林區德行東路267號,25.1099739,121.5351309
陳又青 中山天津店,3.7,58,無酒精飲料店,台北市中山區天津街56之18號1 樓,25.0506406,121.5230734
滿溢MAYI-石牌店,5,356,冰品飲料店,台北市北投區石牌路一段132號,25.1140112,121.5126925
得正#台北石牌計劃,3.5,226,冰品飲料店,台北市北投區裕民一路20號,25.116542,121.5166865
COMEBUY_北投榮總店,3.8,88,冰品飲料店,台北市北投區石牌路二段201號,25.1201836,121.5201598
CoCo都可(石牌商城店),4.4,103,冰品飲料店,台北市北投區石牌路二段62-1號,25.1161823,121.5162096
鄒記冰茶,5,30,冰品飲料店,台北市北投區自強街72號1樓,25.1104718,121.514283
圓石Teabar 北投明德店,4.6,46,冰品飲料店,台北市北投區致遠一路一段12號,25.1079012,121.5173441
哈根達斯 美麗華旗艦店,3.6,334,冰品飲料店,台北市中山區敬業三路20號,25.0830577,121.5568015
麻古茶坊石牌店,4.1,565,冰品飲料店,台北市北投區石牌路二段85號,25.1170191,121.5161927
COMEBUY_石牌國中店,3.8,26,冰品飲料店,台北市北投區石牌路一段164號1樓,25.1143871,121.5134712
黑白獅楊桃茶飲,4.9,114,冰品飲料店,台北市信義區虎林街132巷5號,25.0402626,121.576682
茶涎石牌自強店,4.3,38,冰品飲料店,台北市北投區石牌路一段166巷144號,25.111257,121.5158634
食茶配話Drink tea with chatting,4.8,58,冰品飲料店,台北市北投區吉利街123巷20號,25.1191703,121.5063754
紅茶洋行【北投吉利店】,4.1,47,冰品飲料店,台北市北投區吉利街112-2號,25.1184796,121.5064804
楊咩咩飲料店,0,0,冰品飲料店,台北市士林區華岡路47巷1-2號,25.1376992,121.5416569
三分甜茶飲 台北市民權店,4.8,74,冰品飲料店,台北市大同區民權西路144巷9號,25.0620197,121.5160149
紅茶屋,4.2,2,冰品飲料店,台北市大同區重慶北路三段335巷56之1號,25.0744639,121.5155667
廣安階 新光三越南西三館,3.2,23,冰品飲料店,台北市中山區南京西路15號號B1,25.0527485,121.5206836
甘記燒仙草飲料店,4,1,冰品飲料店,台北市大同區寧夏路30之4號,25.0558677,121.5151325
圓石禪飲 - 台北中山晴光店,3.9,20,冰品飲料店,台北市中山區農安街29號,25.065024,121.524826
Swiido 走糖 -長安店｜手搖飲｜飲料｜冰品｜黃金零卡糖｜健康｜手搖必喝｜東區｜中山區｜外送,4.7,199,冰品飲料店,台北市中山區長安東路二段258號,25.0481467,121.5436003
圓石禪飲 台北遼寧店,4.1,126,冰品飲料店,台北市中山區遼寧街13號,25.047627,121.542214
茶湯會,3.4,14,冰品飲料店,台北市中山區遼寧街48之3號,25.0491215,121.5420687
清心福全 雙城店 珍珠奶茶手搖飲料專賣店,3.6,110,珍珠奶茶,台北市中山區雙城街13巷26號,25.0640418,121.5253388
好了啦-台北中原店,4.3,8,冰品飲料店,沒有地址,25.0573334,121.5289374
50嵐 大直北安店,3.7,310,冰品飲料店,台北市中山區北安路571-3號,25.0811707,121.5484051
綠茶屋,3.8,14,冰品飲料店,台北市大同區大龍街308-310號,25.0717185,121.5157622
極智濃醇香豆漿專賣店,5,6,冰品飲料店,台北市中山區撫順街33號,25.0636153,121.5198149
50嵐 昌吉店,4,234,冰品飲料店,台北市大同區昌吉街35號1樓,25.0659901,121.516675
麻古茶坊大直店,3.1,63,冰品飲料店,台北市中山區大直街61號,25.083459,121.546436
可不可熟成紅茶-台北大直店,3.7,124,珍珠奶茶,台北市中山區大直街37號,25.0823947,121.5464893
貢茶 台北大直店,4.9,308,無酒精飲料店,台北市中山區大直街56號,25.082644,121.546259
植蘊 Plant? 大直小公園店,4.4,107,無酒精飲料店,台北市中山區樂群三路200號2F-01,25.0822446,121.5570625
鳥泥 · 飲室,4.4,231,冰品飲料店,台北市內湖區環山路一段9巷9號,25.0829092,121.5662604
巷仔裡黑糖粉圓,4.3,33,冰品飲料店,沒有地址,25.0608962,121.531666
黑丸嫩仙草 內湖內科店,4.5,162,冰品飲料店,台北市內湖區內湖路一段91巷5號1樓,25.0846758,121.5611124
約翰紅茶公司,4.4,1,冰品飲料店,台北市內湖區江南街98號,25.0770377,121.5768955
鮮茶道 (大直實踐店),3.3,41,冰品飲料店,台北市中山區大直街37號,25.0823925,121.5464944
呷涼呷燒,4.5,61,冰品飲料店,台北市中山區南京東路一段132巷6號1樓,25.0515291,121.5271464
七盞茶 中山林森北店,4.7,609,冰品飲料店,沒有地址,25.0558905,121.5252919
小王子咖啡,4.6,40,冰品飲料店,台灣中山區吉林路26巷12號,25.0514071,121.5294967
蕎蕎馬路 CHIAO CHIAO LINE,4.2,115,冰品飲料店,台北市大同區南京西路18巷6之1號,25.051825,121.520156
五川茶飲,5,253,冰品飲料店,台北市中山區民生東路一段25-2號,25.0582863,121.524347
台北牛乳大王,2.6,1,冰品飲料店,台北市大同區南京西路20號,25.0525699,121.5202194
smith&hsu 現代茶館 南京東路店,4.2,616,冰品飲料店,台北市中山區南京東路一段36號,25.0519952,121.52396
貨室甜品 HuoShih,4.4,1,冰品飲料店,台北市大同區赤峰街71巷34號,25.0565493,121.5204453
康青龍 長安旗艦店,3.4,265,冰品飲料店,台北市大同區長安西路55號,25.050899,121.5174984
羽碩有限公司,5,2,冰品飲料店,台北市中山區林森北路302號1樓,25.0558905,121.5252919
李記古味紅茶冰龍江店,4.5,30,冰品飲料店,"樓, 高麗菜飯隔壁No. 2號合江街中山區台北市104",25.0548183,121.5389377
COMEBUY_台北復錦店,4.2,127,珍珠奶茶,台北市中山區錦州街419號,25.0602902,121.5420857
天仁喫茶趣 復興店,4.1,1,中式茶館,台北市中山區復興北路152號,25.0529668,121.5437716
50嵐 長春店,3.6,270,冰品飲料店,台北市松山區長春路476號,25.054378,121.5464934
白黑生活茶,4.7,9,茶藝館,台北市中山區南京東路三段89巷3弄10號,25.0524261,121.5392564
K’s table 阿寶雜貨屋｜日式｜咖啡飲品｜下午茶｜鬆餅蛋糕,4.6,50,冰品飲料店,台北市中山區興安街80巷6號,25.0556628,121.5413818
得正 #台北大安計劃,3.1,269,冰品飲料店,台北市大安區復興南路一段107巷39號,25.0436637,121.5458901
有什麼水果茶專賣店,4.8,132,冰品飲料店,台北市中山區農安街2巷20-35號,25.0640606,121.5229568
老茶人 內科店,4.4,168,冰品飲料店,台北市內湖區內湖路一段411巷10-1號,25.0823116,121.5710362
本土味茶坊,4,1,無酒精飲料店,台北市中山區南京東路一段132巷28之1號,25.0501832,121.5267169
清水茶香(南西店),4.2,91,珍珠奶茶,台北市大同區南京西路101號,25.0538939,121.5161064
清心福全成功店-珍珠奶茶手搖飲料專賣店,3.5,145,冰品飲料店,台北市大安區復興南路二段151巷49號,25.0283799,121.5457522
約翰紅茶公司,4.2,1,冰品飲料店,台北市信義區永吉路30巷123號,25.0428958,121.5688647
50嵐 北車店,3.3,415,冰品飲料店,"B1, No. 49號 號忠孝西路一段中正區台北市100",25.0465322,121.517644
巧克力雲莊 萬豪專櫃,4.4,60,冰品飲料店,台北市中山區樂群二路199號,25.0804832,121.5592914
CoCo都可 林森北店,3.9,306,冰品飲料店,沒有地址,25.0604506,121.5254191
水巷茶弄-台北松江店,4,119,冰品飲料店,沒有地址,25.0609973,121.5346603
迷客夏 臺北農安店,3.7,251,珍珠奶茶,台北市中山區農安街12號,25.0647981,121.524051
功夫茶 KUNGFUTEA 台北雙城店,4.2,109,珍珠奶茶,台北市中山區雙城街15號,25.0641732,121.524488
楊桃汁,4.5,4,冰品飲料店,台北市中山區民權西路60號,25.0630904,121.5289015
CoCo都可 林森北店,3.9,306,珍珠奶茶,台北市中山區林森北路438號,25.0604506,121.5254191
晴茗茶業 Ching Ming Tea Business,4.7,15,茶葉店,"No. 10號, 12巷, 中山區台北市104",25.064543,121.523842
思茶MissingTea 台北錦州店,4.9,248,珍珠奶茶,台北市中山區錦州街358號,25.0601514,121.5396648
DrinkStore水雲朵台北復興店,4.7,169,珍珠奶茶,台北市中山區復興北路154-1號,25.0530117,121.5437952
茶研社,4.4,28,飲料,台北市中山區龍江路356巷21號,25.0661178,121.5400361
清心福全長春二店,4.1,56,無酒精飲料店,台北市中山區長春路120號,25.0547518,121.5303141
滿食茶間 - 伊通店,4.5,480,珍珠奶茶,台北市中山區伊通街131號,25.054481,121.5349077
珍煮丹 台北合江店,4,197,珍珠奶茶,台北市中山區合江街152-1號,25.060014,121.5391088
愛果子,0,0,冰品飲料店,台北市中山區建國北路一段58號,25.0486232,121.5363596
CM木瓜牛奶 - Classic Milk,4.8,1,冰品飲料店,台北市中山區松江路36號,25.0474851,121.5327213
陸地A冰,3.9,10,冰品飲料店,台北市中山區八德路二段50號,25.0451375,121.5351514
DIVA LIFE三創,5,1,冰品飲料店,"b2號, No. 2號市民大道三段中山區台北市10491",25.0454815,121.5311273
朱記茶莊烏龍茶專賣店,4.5,10,茶葉店,台北市中山區南京東路一段13巷8號,25.053643,121.523621
百草園青草茶專賣店,4.8,146,無酒精飲料店,台北市中山區龍江路21巷34號,25.0477384,121.5417192
得正#台北光華計畫,3.1,141,冰品飲料店,台北市中正區八德路一段82巷9弄11號,25.0436167,121.531507
沛季 TEA SHOP,4.9,168,珍珠奶茶,台北市中山區松江路259巷27號,25.0596176,121.5345175
清心福全中山松江店（錦州）-珍珠奶茶手搖飲料專賣店,4,150,無酒精飲料店,台北市中山區錦州街247-1號,25.0604633,121.5340317
麻古茶坊-松江南京店,4.1,168,珍珠奶茶,台北市中山區南京東路二段192號,25.0516988,121.5354392
一漾 Yearning Tea,4.4,332,珍珠奶茶,台北市中山?合江街71巷6號1樓,25.0585888,121.5393947
拾?茶屋 三創店 19TeaHouse,4.9,331,冰品飲料店,台北市中正區八德路一段82巷18號,25.0434931,121.5322239
上鼎軒-精選茶飲,4.2,105,冰品飲料店,台北市中正區八德路一段43巷28號,25.0447254,121.5315147
龜記茗品 光華三創店,3.9,682,冰品飲料店,台北市中正區八德路一段43巷8號,25.0445228,121.5315325
50嵐 林森店,3.9,183,冰品飲料店,台北市中山區林森北路93號,25.0499989,121.5249618
COMEBUY_台北光華店,4.5,380,冰品飲料店,台北市中正區市民大道三段8號1樓,25.0450357,121.5319312
五桐號WooTea 台北光華三創店,3.6,95,冰品飲料店,台北市中正區八德路一段94號,25.0440084,121.5322104
好了啦-台北光華店,2.8,18,冰品飲料店,台北市中正區八德路一段82巷9弄16號,25.0435303,121.5316791
萬波島嶼紅茶 Wanpo Tea Shop 台北光華店,3.1,123,冰品飲料店,台北市中正區八德路一段82巷9弄18號,25.0434698,121.531614
老賴茶棧台北光華店,4.6,155,冰品飲料店,台北市中正區八德路一段82巷9弄5號,25.0436361,121.5316532
可不可熟成紅茶-忠孝新生店,3.6,125,冰品飲料店,台北市中正區八德路一段82巷9弄20之1號,25.0434627,121.53153
50嵐 捷運善導寺店,4.2,340,冰品飲料店,台北市中正區忠孝東路一段11-1號,25.0449151,121.5238661
李記紅茶冰 中山北店,4.3,78,冰品飲料店,台北市中山區中山北路一段78號,25.0488716,121.5208697
Chatime日出茶太-台北天成店,4.3,344,冰品飲料店,台北市中正區忠孝西路一段41號之1號,25.0462326,121.5183633
先喝道台北誠品站前店,4.2,522,冰品飲料店,"B1, No. 49號忠孝西路一段中正區台北市100",25.0463846,121.5178642
CoCo都可 捷運北車店,3.1,128,冰品飲料店,台北市中正區忠孝西路一段49號捷運北車10號店舖號B3,25.0481638,121.5184466
思慕雪手工優格/手工果醬/優格冰淇淋專賣店,5,105,冰品飲料店,台北市大同區承德路二段37巷7號,25.0550181,121.5186996
得正#台北西門計劃,3.2,89,冰品飲料店,台北市萬華區西寧南路111號,25.0449958,121.5066991
得正＃台北晴光計劃 Oolong Tea Project,4.3,70,無酒精飲料店,台北市中山區農安街18號,25.0648379,121.5248439
谷得好好 紅茶專門-北車信陽店,4.7,478,冰品飲料店,台北市中正區信陽街12號,25.0445076,121.5159012
哈根達斯 南西三越店,3,61,冰品飲料店,台北市中山區南京西路12號,25.0523038,121.5211048
喫茶趣ToGo(民生東路店),3.3,6,珍珠奶茶,台北市中山區民生東路一段26之2號,25.0579131,121.5239
天仁茗茶 民生東路店,3.1,105,珍珠奶茶,台北市中山區民生東路一段26之2號,25.0579199,121.5239159
麻古茶坊中山農安店,3.7,320,冰品飲料店,台北市中山區民生東路一段26之2號,25.064822,121.52343
貢茶 台北濱江店,4.7,162,冰品飲料店,台北市中山區錦西街14號,25.066959,121.5359965
水巷茶弄 台北長安店,3.6,238,珍珠奶茶,台北市大同區長安西路126號,25.0505608,121.5180385
可不可熟成紅茶 台北遼寧店,4.4,127,珍珠奶茶,台北市中山區遼寧街65號,25.049266,121.5422877
甘馧 Gan Wen,4.5,271,珍珠奶茶,台北市中山區龍江路4號,25.0473905,121.5402644
鬍子茶Who's Tea - 台北合江店,4.1,68,冰品飲料店,沒有地址,25.0599501,121.5391005
水巷茶弄(台北錦州二店),1,1,冰品飲料店,台北市中山區錦州街24號,25.0602335,121.5241883
黛黛茶 DailyDae林森店 - 歐風水果紅茶,3.9,35,冰品飲料店,台北市中山區林森北路410-2號,25.0595298,121.5253454
小冰店,5,1,冰品飲料店,台北市中山區中山北路二段115巷11號,25.0609616,121.5236863
丸作食茶-台北民權店,2.9,16,冰品飲料店,台北市中山區民權西路11號,25.0629905,121.5218975
洱之海 Erdrink(養身飲品),5,3,冰品飲料店,台北市中山區雙城街17巷8-1號,25.0644387,121.5248472
塔比魯手搖飲,4.5,4,冰品飲料店,台北市中山區錦西街31號,25.0604519,121.5207306
卡古拉,4.2,12,冰品飲料店,台北市中山區雙城街17巷2號號,25.0644455,121.5245967
茶聚i-partea台北錦州店,3.7,3,冰品飲料店,台北市中山區錦州街320號,25.0602024,121.5380954
萬波島嶼紅茶 Wanpo Tea Shop 台北光華店,3.1,123,冰品飲料店,沒有地址,25.0434698,121.531614
茶聚CHAGE台北長安店,4.3,470,冰品飲料店,沒有地址,25.051396,121.5152907
OLAND 島嶼水果茶飲 臺北京站店,4.3,87,冰品飲料店,台北市大同區承德路一段1號,25.0493012,121.5171717
CoCo都可龍江2店,3.7,153,冰品飲料店,沒有地址,25.0657739,121.5408219
茶姬鮮萃茶飲,4.2,26,冰品飲料店,台北市中山區五常街3號,25.0644359,121.5375791
天仁茗茶 中山店,3.9,119,珍珠奶茶,台北市中山區中山北路一段105巷11號,25.0509045,121.5230975
鴻仁茶行有限公司 其它營業時間請先電話預約聯絡！謝謝！,3.5,4,茶葉店,台北市中山區吉林路257號號,25.0617188,121.530394
合集良飲 HOPECHA (中山農安店),4.8,163,冰品飲料店,台北市中山區農安街166巷1-1號號,25.0645039,121.5339444
熊泰 泰式奶茶中山店,5,383,冰品飲料店,台北市中山區南京西路23巷3號,25.0562899,121.521456
木衛二 內湖鑄茶所,4,35,冰品飲料店,台北市內湖區內湖路一段411巷3號,25.0819088,121.5711077
得正#內湖江南計劃,3.7,100,冰品飲料店,台北市內湖區江南街113號,25.0762565,121.5761101
可不可熟成紅茶-內湖江南店,3.6,142,冰品飲料店,台北市內湖區江南街105號,25.0766489,121.5766625
兩點 （手作茶飲+車輪餅）,4.4,370,冰品飲料店,台北市內湖區內湖路一段425號,25.081447,121.571565
清玉手調原味茶（台北西湖店）,3,84,冰品飲料店,台北市內湖區內湖路一段341-1號,25.0822474,121.5688528
微堂well done內湖店,4.6,68,冰品飲料店,台北市內湖區內湖路一段323巷4弄5號,25.082862,121.5676736
珍煮丹 內湖園區店,4.5,272,冰品飲料店,台北市內湖區內湖路一段411巷8號1樓,25.0820921,121.5710158
泰讚了thai like tea泰式奶茶,4.6,1,冰品飲料店,台北市松山區市民大道五段37號,25.0460735,121.5597239
金龍治茶,4.7,91,冰品飲料店,台北市大同區長安西路260號,25.0514604,121.5133364
七盞茶 中正杭州店,4.2,148,冰品飲料店,台北市中正區杭州南路一段89號,25.0389362,121.5255538
日日裝茶 - 中正南門店,3.9,271,冰品飲料店,台北市中正區羅斯福路一段24-1號,25.0315867,121.5188579
都可 金山店,4,213,冰品飲料店,台北市中正區信義路二段91-4號,25.034399,121.5271937
沐慕茶飲,4.5,388,冰品飲料店,台北市中正區南昌路二段190-1號,25.0243177,121.524002
茶湯會南門店,4.1,237,冰品飲料店,台北市中正區南昌路一段49號,25.031385,121.517258
乳?在一起-中正紀念堂,4,259,冰品飲料店,台北市中正區寧波東街11-4號,25.0329778,121.5202159
方最茗品 台北濟南店,4,86,冰品飲料店,台北市中正區濟南路二段60-6號,25.0401451,121.5321595
CoCo都可 南昌店,3.7,284,冰品飲料店,台北市中正區寧波西街83-2號,25.0302637,121.5165912
珍煮丹 中正南門店,3.4,364,冰品飲料店,台北市中正區羅斯福路一段12號,25.0319543,121.5185911
163 Lane 中正區手搖飲,4.6,149,冰品飲料店,台北市中正區延平南路163巷4號,25.0350338,121.5079528
50嵐 寧波店,4.1,203,冰品飲料店,台北市中正區寧波西街51號,25.0309349,121.517759
大苑子,4.1,477,冰品飲料店,台北市中正區南昌路一段80號,25.030943,121.517296
迷客夏Milksha 臺北南陽店,3.5,445,冰品飲料店,台北市中正區南陽街15-5號,25.0442614,121.5161377
清原芋圓 台北中正古亭店,4.1,162,冰品飲料店,台北市中正區杭州南路二段56號,25.0301734,121.5220068
50嵐 新生店,3.5,360,冰品飲料店,台北市中正區新生南路一段52之3號,25.0413767,121.5325741
拾?茶屋 台北南陽店,4,170,冰品飲料店,台北市中正區南陽街4號,25.0452339,121.5160099
JIATE 新光站前店,4.1,178,冰品飲料店,"b1, No. 66號忠孝西路一段中正區台北市10018",25.0459441,121.5153112
麻古茶坊台北古亭店,2.9,337,冰品飲料店,台北市中正區羅斯福路二段142號,25.0258032,121.5230824
老賴茶棧台北北車店,3.9,86,冰品飲料店,台北市中正區公園路22-2號,25.0451006,121.5170338
迷客夏 臺北南昌店,3.3,326,珍珠奶茶,台北市中正區寧波西街50號,25.0307524,121.5177771
日日裝茶 - 台北站前店,3.9,63,冰品飲料店,台北市中正區重慶南路一段18號1樓,25.0462109,121.513097
迷客夏Milksha 臺北車站店,3.1,155,冰品飲料店,"B1, No. 49號忠孝西路一段中正區台北市10041",25.046582,121.5163683
森發茶行武昌店,4.2,87,冰品飲料店,台北市中正區武昌街一段31號,25.044234,121.512068
茶鬍Beard Cup 中正漢口店,3.5,113,冰品飲料店,台北市中正區漢口街一段110-1號,25.045131,121.5109264
樂法Le Phare - 京站店,3.7,675,冰品飲料店,台北市中正區忠孝西路一段49號號B3,25.0478258,121.5177255
清心福全中正信陽店 珍珠奶茶手搖飲料專賣店,3,173,珍珠奶茶,台北市中正區信陽街6之1號,25.0445796,121.5163278
山焙 SUNBAY (中正衡陽店）,3.9,122,冰品飲料店,台北市中正區衡陽路69號,25.0423891,121.5116879
相聚一刻冰舖,4.4,23,冰品飲料店,台北市中正區南昌路一段59巷28-1號,25.0318942,121.5184552
李記紅茶冰中正古亭,5,24,冰品飲料店,台北市中正區南昌路二段128-2號,25.0254888,121.5225739
Sharetea歇腳亭-南陽創始店,3.9,340,冰品飲料店,台北市中正區南陽街11號,25.0452099,121.5161901
波囍,4.3,382,冰品飲料店,台北市中正區羅斯福路三段316巷2號,25.015879,121.5326641
晴喜摘 中正南陽店,5,987,冰品飲料店,台北市中正區南陽街9號,25.0451774,121.5162139
Who's Tea 鬍子茶 - 微風北車店,3.9,291,冰品飲料店,台北市中正區北平西路3號2樓,25.0477467,121.5169983
天仁喫茶趣ToGo 臺大醫院店,2.5,23,冰品飲料店,台北市中正區中山南路7號,25.0402741,121.5191591
台大胖妞冰店,4.5,285,冰品飲料店,台北市中正區林森南路。徐州路18巷口,25.0400494,121.5220945
50嵐 開封店,3.5,258,冰品飲料店,台北市中正區開封街一段9號,25.0461185,121.5138822
可不可熟成紅茶-台北站前店,4.1,549,冰品飲料店,台北市中正區南陽街34號,25.0441477,121.5160239
COMEBUY_台北南陽店,3.8,312,冰品飲料店,台北市中正區許昌街26-2號,25.0454403,121.5162742
木木果舖,5,4,冰品飲料店,台北市中正區衡陽路53號1樓A室,25.0424157,121.5121516
有禾 Yohak,5,20,冰品飲料店,台北市中正區金門街24巷35號1樓,25.0231754,121.5212959
清心福全（青島東店）珍珠奶茶手搖飲料店,3.6,156,無酒精飲料店,台北市中正區杭州南路一段10號,25.04309,121.5264659
茶與布朗 北車南陽店,4.5,37,冰品飲料店,台北市中正區南陽街13號,25.044983,121.5163747
?加 Fruit plus - 台大醫院3號店,3.5,10,冰品飲料店,台北市中正區中山南路7號,25.0405354,121.5189714
冇月冇日 冰萃茶茶飲專賣店,4.9,282,冰品飲料店,台北市大安區麗水街16巷1號1樓,25.0318034,121.5287563
COMEBUY 台北衡陽店,3.5,148,冰品飲料店,"之1號, 衡陽路中正區台北市10043",25.042391,121.510834
麻古茶坊台北車站店,3.5,119,冰品飲料店,"B1, 靠近M6出口, No. 49號忠孝西路一段中正區台北市100",25.0463846,121.5178642
巴伯Q奶 Bubble tea 黑糖珍珠牛奶專賣店,4.3,271,冰品飲料店,沒有地址,25.0159261,121.5327984
珍煮丹 台北濟南店,4.3,197,冰品飲料店,台北市中正區濟南路二段60之1號1樓,25.0401612,121.5319473
50嵐 信陽店,3.6,163,冰品飲料店,台北市中正區信陽街13號,25.044775,121.516427
得正#台北公館計劃,4.1,258,冰品飲料店,台北市中正區羅斯福路三段316巷10-2號,25.0155973,121.5323792
CoCo都可 (捷運北車2)M3出口,3.9,21,冰品飲料店,台北市中正區忠孝西路一段49號台北車站M3出口B1,25.0464324,121.5177619
鬍子茶Who's Tea - 台北林森店,4.1,53,珍珠奶茶,台北市中正區林森南路61巷10-11號,25.0397429,121.5222018
清心福全中正泉州店-珍珠奶茶手搖飲料專賣店,3.9,103,無酒精飲料店,台北市中正區泉州街14號,25.0272508,121.5143601
珍煮丹 台北延平南店,4.4,103,冰品飲料店,台北市中正區延平南路238號,25.0337731,121.5073047
墨潮青蛙撞奶,3.7,214,冰品飲料店,台北市中正區羅斯福路三段316巷10號,25.0156409,121.532435
清心福全台北開封店-珍珠奶茶手搖飲專賣店,3.7,76,珍珠奶茶,台北市中正區開封街一段64號,25.045903,121.51164
鶴茶樓- 鶴頂紅茶商店(中正寧波西店),3.8,202,珍珠奶茶,台北市中正區寧波西街42號,25.030854,121.517968
得正#北車信陽計劃,3.4,141,冰品飲料店,台北市中正區信陽街13之1號,25.0447694,121.5163223
快樂檸檬HappyLemon 公館店,4.5,463,冰品飲料店,台北市中正區羅斯福路四段24巷14號,25.0150088,121.5327284
鮮茶道台北站前店,3.7,83,珍珠奶茶,台北市中正區南陽街1號1號樓E區,25.0455525,121.5162596
天仁茗茶 台北和平店,3.8,81,冰品飲料店,台北市大安區和平東路一段13號,25.0272959,121.522684
五桐號 開封店,3.8,345,冰品飲料店,台北市中正區開封街一段19號,25.0460533,121.513769
萬波島嶼紅茶 Wanpo Tea Shop 台北衡陽店,3.1,599,珍珠奶茶,台北市中正區衡陽路25號,25.0423747,121.5127289
甘蔗?媽媽-台北公館店,3.9,272,冰品飲料店,台北市中正區汀州路三段130號,25.0139172,121.5337206
樺達奶茶 誠品站前店一店,2.8,626,珍珠奶茶,台北市中正區忠孝西路一段49號,25.0463846,121.5178642
天仁茗茶台北車站1樓,3.6,27,冰品飲料店,台北市中正區北平西路3號,25.0482031,121.5171629
animate cafe 台北西門店,4,269,冰品飲料店,台北市中正區中華路一段39號1樓,25.0453715,121.5098341
公園號酸梅湯,4.1,726,冰品飲料店,台北市中正區衡陽路2號,25.0422528,121.5139472
清心福全中正中華店-珍珠奶茶手搖飲料專賣店,3.4,79,無酒精飲料店,台北市中正區中華路二段307巷6號,25.0287771,121.5055345
基仔冰,4.9,28,冰品飲料店,台北市中正區羅斯福路三段286巷3號,25.0160687,121.5324105
COMEBUY_台北汀州店,4,67,冰品飲料店,台北市中正區羅斯福路四段136巷6號,25.0126405,121.5355161
animate cafe 台北北門店,4.1,319,冰品飲料店,台北市中正區博愛路7號1樓,25.0460875,121.511508
墾丁蛋蛋ㄉㄨㄞ奶,4.2,1,冰品飲料店,台北市中正區汀州路三段165號,25.0152995,121.5321294
洪記紫米牛奶,3.7,199,冰品飲料店,台北市中正區羅斯福路四段90巷1號攤位,25.0139489,121.5348708
清心福全杭州南店-珍珠奶茶手搖飲料專賣店,3.4,86,無酒精飲料店,台北市中正區羅斯福路二段10號,25.0288449,121.5208147
東方洋行 北車微風店,4.1,19,冰品飲料店,台北市中正區北平西路3號,25.0478356,121.5163623
正宗建中黑砂糖刨冰,4.2,2,冰品飲料店,台北市中正區泉州街35號,25.02933,121.5143573
Fun Juice 丰果汁｜台大醫院兒童醫院店,5,55,冰品飲料店,台北市中正區中山南路8號B1,25.0443897,121.5185546
山焙 和平臥龍店,4.2,629,冰品飲料店,台北市大安區和平東路二段363號,25.0248018,121.5464314
清心福全公館店-珍珠奶茶手搖飲料專賣店,3.6,145,珍珠奶茶,台北市中正區羅斯福路三段316巷1-6號,25.0158903,121.5325063
清心福全成功店-珍珠奶茶手搖飲料專賣店,3.5,145,無酒精飲料店,台北市大安區復興南路二段151巷49號,25.0283799,121.5457522
回溫豆花飲品,4.3,86,冰品飲料店,台北市大安區和平東路二段311巷18號,25.0252045,121.5450326
l?wfun裸放茶旅 信義店,4.6,152,冰品飲料店,台北市信義區松仁路58號B3,25.0368519,121.5677823
龜記茗品 小巨蛋總店,3.8,869,冰品飲料店,台北市松山區八德路三段74巷4號,25.0478668,121.5524552
拾嶺 SHI LING TEA,5,10,茶葉店,lin.ee,23.4857501,120.0843006
茶裡不然,0,0,無酒精飲料店,台北市大安區信義路三段190-3號,25.0331842,121.5429133
天仁茗茶 武昌店,3.4,138,冰品飲料店,台北市中正區武昌街一段3號,25.0441573,121.5128723
"巷果華-健康果昔 (""Eat"" Smoothie)",5,84,冰品飲料店,台北市開封街一段2-20號懷寧街17號旁,25.045754,121.5142528
李記紅茶冰-中正忠孝店,4.9,62,無酒精飲料店,台北市中正區忠孝西路一段72號之31,25.046638,121.5141338
鶴茶樓- 鶴頂紅茶商店(北車信陽店),3.7,307,珍珠奶茶,台北市中正區信陽街18號,25.0445546,121.5157079
玖仰茶食文化 jiuyang(信陽門市),3.9,23,冰品飲料店,台北市中正區信陽街6-2號,25.0445179,121.5162491
順興冰果室,4.4,309,冰品飲料店,台北市中正區牯嶺街5巷1號,25.0319113,121.5157155
綠豆蒜製研所,4.3,172,冰品飲料店,台北市中正區南陽街38巷2號,25.0441217,121.5157802
Dilmah帝瑪紅茶中正門市,4.6,33,茶葉店,台北市中正區寧波西街83-5號,25.0302887,121.5166472
原典鮮沏茶,3.8,86,冰品飲料店,台北市大安區舟山路243號,25.0154922,121.5369079
梅子兔生活飲品專賣店(西門總店),4.8,573,冰品飲料店,台北市萬華區西寧南路50巷7號1 樓,25.044443,121.505753
發發 公館牧場,4.9,1,冰品飲料店,台北市中正區汀州路三段164號,25.0133798,121.534466
COMEBUY,3.8,153,冰品飲料店,台北市中正區中華路二段313巷2號,25.0280493,121.5060511
麻古茶坊信陽店,3.9,452,珍珠奶茶,台北市中正區信陽街25號,25.0447993,121.5157673
南機場芋頭大王,4.1,1,冰品飲料店,台北市中正區中華路二段313巷5號,25.0282639,121.5060278
馬蔥餅／馬祖奶茶-南機場店-中正特色飲品|熱門小吃|人氣美食|排隊美食|馬蔥餅推薦|必喝飲料,4,41,冰品飲料店,台北市中正區中華路二段309巷20號和22號十字路口(第23攤位,25.0288597,121.5061364
來呷甜甜品,4.5,1,冰品飲料店,台北市中正區延平南路11號1F,25.0461958,121.5108528
鴉 片 粉 圓 (古亭店)-台北中正區冰店甜品 平價必吃推薦 愛玉/仙草/豆花/燒仙草/紅豆湯圓/粉圓 古早味手工天然下午茶 師大夜市附近 PTT Dcard,4.3,776,冰品飲料店,台北市中正區南昌路二段156號,25.0249071,121.5233218
九日咖啡（北車店）9 Days Coffee,4.6,319,冰品飲料店,台北市中正區青島西路11號,25.0449603,121.5177709
50嵐 西門店,3.9,462,珍珠奶茶,台北市中正區漢中街136號,25.041821,121.507082
大家美食愛玉檸檬冰品 Sun Like Sweets Dessert Shop,3.6,87,冰品飲料店,台北市中正區武昌街一段23號,25.0441931,121.5122632
日春木瓜牛奶 臺北車站,2,60,冰品飲料店,台北市中正區北平西路臺北車站,25.047702,121.5173735
福利社茶店,0,0,冰品飲料店,台北市中正區忠孝西路一段170號B1,25.0471501,121.5141661
唱吧搖霸 南陽街威雅店,0,0,冰品飲料店,台北市中正區南陽街6號,25.0453334,121.5160089
大茗本位製茶堂-台北站前店,3.4,91,冰品飲料店,台北市中正區信陽街11之2號1樓,25.0447769,121.5165099
Ice Papa,3.8,485,冰品飲料店,台北市中正區延平南路110號,25.042344,121.5094814
NAKA Taipei,4.8,118,冰品飲料店,台北市中正區忠孝東路二段87號1樓,25.0431202,121.5306257
小森活 | Health Food & Food Souvenirs | 冰淇淋、氣泡飲、金匠冷麵、新鮮蔬果、健康茶點,5,5,冰品飲料店,台北市中正區杭州南路一段2號,25.0435352,121.526096
萬波島嶼紅茶 Wanpo Tea Shop 台北大安店,3,270,冰品飲料店,台北市大安區東豐街35號,25.0361711,121.5463138
咖啡弄(站前店) Coffee Alley (Zhanqian),3.8,2,冰品飲料店,台北市中正區館前路18號2樓,25.045466,121.5148084
金陵酸梅湯之家,4.2,69,冰品飲料店,台北市中正區沅陵街2號,25.042721,121.512908
天仁喫茶趣 衡陽店,4.1,1,中式茶館,台北市中正區衡陽路62號2樓,25.0421758,121.5117931
茶。嗜 SEE TEA COFFEE -大安熱門飲料|推薦手搖|人氣咖啡|忠孝復興冬季飲品|推薦手搖|必喝咖啡,4.8,92,冰品飲料店,台北市大安區忠孝東路四段40巷9號,25.0412542,121.5447157
波哥的小處茶堂,3.7,237,冰品飲料店,台北市大安區復興南路一段321號A31室,25.0339629,121.5439899
吾悠茶所,4.8,719,冰品飲料店,台北市大安區信義路三段174之1號,25.0331986,121.542124
忠於原味,0,0,冰品飲料店,台北市大安區仁愛路四段48巷11號,25.0370465,121.5471663
晴喜摘 公館店,4.9,819,無酒精飲料店,台北市中正區羅斯福路四段126號,25.0130869,121.5357003
FutiFudi 果滴滴 忠孝店,3.5,82,冰品飲料店,台北市大安區忠孝東路四段45號B1,25.0420339,121.5447843
清心福全大安店-珍珠奶茶手搖飲料專賣店,4.2,156,冰品飲料店,台北市大安區大安路一段229號1樓,25.0344367,121.5461059
NUTTEA Nut Mylk Tea 堅果奶 · 茶,4.4,584,冰品飲料店,台北市大安區復興南路二段11之1號,25.0326279,121.5437503
烈奶茶,4,357,冰品飲料店,沒有地址,25.0427616,121.5441811
麥吉machi machi,4,1,冰品飲料店,台北市大安區大安路一段51巷16號一樓,25.0430259,121.5467882
醇白茶飲（台北概念店）Arctic White,4.5,128,冰品飲料店,台北市大安區忠孝東路四段7號1樓,25.041883,121.544274
沐慕茶飲,4.1,78,冰品飲料店,台北市大安區大安路一段205-1號,25.0353203,121.5461137
埔里102,4.5,43,冰品飲料店,台北市大安區信義路四段60-70號號,25.032637,121.54585
健康橘子工坊（忠孝敦化總店）,4.7,91,冰品飲料店,台北市大安區忠孝東路四段85號,25.0417604,121.5476803
茶敬茶 Tea to Tea(2/16~3/17店內整修),4.7,606,茶葉店,台北市大安區永康街4巷16號,25.0328886,121.529398
天下佈武日月潭紅茶,3.7,832,冰品飲料店,台北市大安區師大路50號1 樓,25.0246959,121.5282196
龜記茗品-忠孝復興旗艦店,4.1,251,冰品飲料店,台北市大安區復興南路一段135巷19號,25.0426621,121.5451709
上宇林頂級茶飲台北大安店,3.6,24,冰品飲料店,台北市大安區106復興南路二段17-2號,25.0322873,121.5438297
小南門傳統豆花,2.7,60,冰品飲料店,"B2, No No, No. 300號忠孝東路三段大安區台北市106",25.0408932,121.5432417
MOJI MOJI萌吉茶飲,4.8,119,冰品飲料店,台北市大安區大安路一段172號1樓,25.0366261,121.545853
Midnight串烤 居酒屋 酒吧 餐酒館 燒烤,4.8,20,冰品飲料店,台北市中正區仁愛路二段34-6號,25.0380784,121.5271673
天和鮮物•華山旗艦店,4.3,851,冰品飲料店,台北市中正區北平東路30號1樓,25.0456678,121.52604
倉鼠甜點工作室(公休日請詳見IG公告),4.4,234,冰品飲料店,台北市中正區杭州南路一段14-7號,25.0392103,121.5253616
天仁茗茶 信義店,3.8,177,珍珠奶茶,台北市大安區信義路二段162號,25.0336317,121.5290489
烏弄原生茶飲 信義吳興店,4,199,冰品飲料店,台北市信義區吳興街35號,25.0314155,121.5599428
春芳號-台北世貿店,3.1,42,冰品飲料店,台北市信義區台北市松壽路12號1樓,25.0349503,121.5659101
TSUJIRI ?利茶? 遠百信義店,4.2,203,冰品飲料店,台北市信義區松仁路58號b3,25.0368147,121.5679472
甜醺圈圈/信義店-信義特色茶飲|必吃甜點|甜點推薦|水果飲品|可麗露推薦|蛋糕推薦,4.7,62,冰品飲料店,台北市信義區松高路11號誠品信義百貨B2,25.0397197,121.5658739
武林茶信義永吉店,4.5,70,冰品飲料店,台北市信義區忠孝東路五段71巷3弄1號1樓,25.0417136,121.5686694
御心木瓜牛奶 信義店 酪梨牛奶專? |大安區飲料?果汁,4.6,237,冰品飲料店,台北市大安區信義路四段265巷25號,25.034466,121.5549002
再睡5分鐘 - 台北吳興店,4.8,430,冰品飲料店,台北市信義區吳興街53號,25.0311133,121.5603385
七盞茶信義莊敬店,4,72,冰品飲料店,台北市信義區莊敬路415號,25.027389,121.56636
龜記茗品 信義莊敬店,3.9,339,冰品飲料店,台北市信義區莊敬路314號,25.028182,121.563251
50嵐 世貿店,3.7,245,冰品飲料店,台北市信義區吳興街15號,25.0315835,121.5596595
先喝道101店,4.2,364,冰品飲料店,台北市信義區市府路45號B1,25.0337881,121.5641995
Chatime日出茶太-信義威秀店,4.2,673,冰品飲料店,"f, No. 20號松壽路信義區台北市110",25.0355154,121.5671201
解解渴有限公司 (愛玉專門店),4.3,360,冰品飲料店,台北市信義區信義路五段150巷22弄65號,25.0272885,121.5707102
甘蔗媽媽-永吉店,3.5,280,冰品飲料店,台北市信義區永吉路30巷115號,25.0432181,121.5688521
麻古茶坊 永吉店,3.7,434,冰品飲料店,台北市信義區永吉路30巷29號,25.0447215,121.5689077
甘蔗?媽媽-科技大樓店,4.6,157,冰品飲料店,台北市大安區和平東路二段311巷3號,25.0249797,121.5451725
天晴1982手作茶飲,4.8,301,冰品飲料店,台北市中正區寶慶路67號,25.041872,121.5092134
茶湯會 信義松山店 |飲料推薦 |外送飲料,3.1,193,冰品飲料店,台北市信義區松山路531號,25.0380413,121.5782593
COMEBUY_台北科大店,4.3,46,冰品飲料店,台北市大安區新生南路一段1號,25.044019,121.533227
瓷禧茶坊 Teazzi 松菸店,4,206,冰品飲料店,台北市信義區忠孝東路四段559巷12號ㄧ樓,25.0420286,121.5637358
黑丸嫩仙草 台北信義店,4.8,355,冰品飲料店,台北市信義區吳興街168-1號1樓,25.0287997,121.5620566
霏等茶 Freedom Wings Tea,4.5,239,冰品飲料店,台北市大安區信義路四段294巷8號1樓,25.0326208,121.5542104
清水茶香(永吉店),3.8,152,冰品飲料店,台北市信義區永吉路30巷157弄2號,25.0421801,121.5688279
1998專業飲品,4.3,99,冰品飲料店,台北市信義區永吉路30巷108號1樓,25.0433113,121.5686025
七盞茶 大安復興南店-大安人氣飲料|熱門飲料|必喝飲品|消暑茶飲|飲品推薦|手搖飲推薦,3.8,61,冰品飲料店,台北市大安區復興南路二段206號,25.0266645,121.5431999
半分鐘-遠百信義A13,4.6,196,冰品飲料店,台北市信義區松仁路58號4樓,25.0365045,121.567926
沖茶????泰式奶茶-香蘭葉甜糕（甜糕販售時間下午4:00-8:00售完為止）,4.8,200,冰品飲料店,台北市信義區忠孝東路五段236巷8號,25.0401079,121.571737
迷客夏 臺北北醫莊敬店,3.7,85,冰品飲料店,台北市信義區莊敬路260號,25.0290906,121.5624556
珍煮丹 大安復興店,4,529,冰品飲料店,台北市大安區信義路三段200號,25.0330886,121.5432814
得正#台北世貿計劃,3.9,449,珍珠奶茶,台北市信義區吳興街19號,25.0316388,121.5597822
珍煮丹 信義市府店,4.1,1,珍珠奶茶,台北市信義區忠孝東路五段17-1號,25.0414512,121.5656269
泰讚了thai like tea通化店,4.4,245,冰品飲料店,台北市大安區通化街36號,25.0310741,121.5540849
CoCo都可 台北建國店,4.4,369,冰品飲料店,台北市大安區建國南路二段17號,25.0327087,121.5381435
Mika咪卡手感茶,4.6,40,冰品飲料店,台北市信義區逸仙路42巷12-1號,25.0401337,121.5626573
樺達奶茶Att 4 Fun,1.5,49,珍珠奶茶,台北市信義區松壽路12號5F,25.0352542,121.5659448
茶山小_TEASSENTIAL（和平總店）,4.8,2,珍珠奶茶,台北市大安區和平東路三段123號,25.0246259,121.551729
一兩十錢青草舖,4.9,242,冰品飲料店,台北市大安區通化街39巷24號,25.0308114,121.5549134
東區粉圓信義分店,4.2,513,冰品飲料店,台北市大安區信義路四段258號,25.0329815,121.5539585
茗時序西門店,4.1,150,冰品飲料店,台北市萬華區昆明街101號,25.0423547,121.504851
